$GPRMC,115400.00,A,4834.29364,N,01155.97318,E,0.435,,200626,,,A*76
$GPGGA,115400.00,4834.29364,N,01155.97318,E,1,10,0.81,497.7,M,46.1,M,,*5E
$GPGSA,A,3,17,02,03,28,32,01,04,08,19,31,,,1.38,0.81,1.12*08
$PFLAA,0,-132,61,-7,2,DDA6B9,0,,0,0.0,1,0,0,*4B
$PFLAU,3,1,1,1,0,,0,,,*4C
$PGRMZ,1289,F,2*08
$PFLAA,0,-132,61,-7,2,DDA6B9,0,,0,0.0,1,0,0,*4B
$POV,A,-1.8637,1.4086,9.6901*3C
$POV,G,-.126,-.005,-.226*3B
$POV,E,0.02,P,966.00,Q,0.00*18
$PFLAA,0,-14,39,-4,2,DDED1C,0,,0,0.0,1,0,0,*0F
$PFLAA,0,-21,29,-2,2,DDA6F0,0,,0,0.0,1,0,0,*7C
$PFLAA,0,-38,35,-14,2,DF289E,0,,0,0.0,1,0,0,*3B
$POV,A,-1.8857,1.3818,9.6911*3D
$POV,G,-.140,.009,-.254*1F
$POV,E,-0.01,P,966.01,Q,0.00*37
$GPRMC,115401.00,A,4834.29364,N,01155.97324,E,0.008,,200626,,,A*72
$GPGGA,115401.00,4834.29364,N,01155.97324,E,1,10,0.81,497.8,M,46.1,M,,*5F
$GPGSA,A,3,17,02,03,28,32,01,04,08,19,31,,,1.38,0.81,1.12*08
$PFLAU,4,1,1,1,0,,0,,,*4B
$PGRMZ,1289,F,2*08
$PFLAA,0,-21,30,-2,2,DDA6F0,0,,0,0.0,1,0,0,*74
$POV,A,-1.8775,1.4025,9.6819*3A
$POV,G,-.065,-.016,-.249*36
$POV,E,-0.05,P,966.01,Q,0.00*33
$PFLAA,0,-132,60,-7,2,DDA6B9,0,,0,0.0,1,0,0,*4A
$PFLAA,0,-13,39,-4,2,DDED1C,0,,0,0.0,1,0,0,*08
$POV,A,-1.8639,1.3918,9.7099*32
$POV,G,-.098,-.029,-.239*3F
$POV,E,-0.11,P,966.01,Q,0.00*36
$GPRMC,115402.00,A,4834.29362,N,01155.97329,E,0.384,,200626,,,A*7D
$GPGGA,115402.00,4834.29362,N,01155.97329,E,1,11,0.81,497.8,M,46.1,M,,*56
$GPGSA,A,3,17,02,03,28,32,01,04,08,19,31,22,,1.38,0.81,1.12*08
$PFLAA,0,-38,35,-14,2,DF289E,0,,0,0.0,1,0,0,*3B
$PFLAU,3,1,1,1,0,,0,,,*4C
$PGRMZ,1292,F,2*02
$PFLAA,0,-132,60,-7,2,DDA6B9,0,,0,0.0,1,0,0,*4A
$POV,A,-1.8687,1.4368,9.6880*3C
$POV,G,-.117,-.018,-.236*34
$POV,E,-0.15,P,966.01,Q,0.00*32
$PFLAA,0,-38,35,-14,2,DF289E,0,,0,-0.1,1,0,0,*17
$PFLAA,0,-14,39,-4,2,DDED1C,0,,0,0.0,1,0,0,*0F
$PFLAA,0,-21,29,-2,2,DDA6F0,0,,0,0.0,1,0,0,*7C
$POV,A,-1.8775,1.3711,9.6860*33
$POV,G,-.075,-.007,-.223*3B
$POV,E,-0.14,P,966.01,Q,0.00*33
$GPRMC,115403.00,A,4834.29366,N,01155.97333,E,0.194,,200626,,,A*70
$GPGGA,115403.00,4834.29366,N,01155.97333,E,1,11,0.81,497.8,M,46.1,M,,*58
$GPGSA,A,3,17,02,03,28,32,01,04,08,19,31,22,,1.38,0.81,1.12*08
$PFLAU,4,1,1,1,0,,0,,,*4B
$PGRMZ,1289,F,2*08
$PFLAA,0,-14,39,-4,2,DDED1C,0,,0,0.0,1,0,0,*0F
$POV,A,-1.8720,1.4208,9.6935*38
$POV,G,-.125,-.007,-.234*39
$POV,E,-0.09,P,966.02,Q,0.00*3C
$POV,V,13.31*31
$PFLAA,0,-38,35,-14,2,DF289E,0,,0,0.1,1,0,0,*3A
$PFLAA,0,-21,29,-2,2,DDA6F0,0,,0,0.0,1,0,0,*7C
$PFLAA,0,-132,60,-7,2,DDA6B9,0,,0,0.0,1,0,0,*4A
$POV,A,-1.8789,1.3896,9.6999*37
$POV,G,-.098,-.016,-.255*39
$POV,E,0.02,P,966.02,Q,0.00*1A
$GPRMC,115404.00,A,4834.29366,N,01155.97333,E,0.086,,200626,,,A*75
$GPGGA,115404.00,4834.29366,N,01155.97333,E,1,11,0.81,498.1,M,46.1,M,,*59
$GPGSA,A,3,17,02,03,28,32,01,04,08,19,31,22,,1.38,0.81,1.12*08
$PFLAU,4,1,1,1,0,,0,,,*4B
$PGRMZ,1289,F,2*08
$PFLAA,0,-132,60,-8,2,DDA6B9,0,,0,0.0,1,0,0,*45
$POV,A,-1.8584,1.4098,9.6807*3F
$POV,G,-.126,.000,-.236*12
$POV,E,0.11,P,966.02,Q,0.00*18
$PFLAA,0,-13,39,-5,2,DDED1C,0,,0,0.0,1,0,0,*09
$PFLAA,0,-21,29,-3,2,DDA6F0,0,,0,0.0,1,0,0,*7D
$PFLAA,0,-37,35,-15,2,DF289E,0,,0,0.0,1,0,0,*35
$POV,A,-1.8646,1.3797,9.7186*3C
$POV,G,-.081,-.020,-.237*30
$POV,E,0.12,P,966.01,Q,0.00*18
$GPRMC,115405.00,A,4834.29364,N,01155.97337,E,0.093,,200626,,,A*76
$GPGGA,115405.00,4834.29364,N,01155.97337,E,1,11,0.81,498.2,M,46.1,M,,*5D
$GPGSA,A,3,17,02,03,28,32,01,04,08,19,31,22,,1.38,0.81,1.12*08
$PFLAU,4,1,1,1,0,,0,,,*4B
$PGRMZ,1292,F,2*02
$POV,A,-1.8738,1.4308,9.6865*34
$POV,G,-.147,-.020,-.233*3F
$POV,E,0.09,P,966.02,Q,0.00*11
$PFLAA,0,-13,39,-5,2,DDED1C,0,,0,0.0,1,0,0,*09
$PFLAA,0,-132,60,-8,2,DDA6B9,0,,0,0.0,1,0,0,*45
$PFLAA,0,-37,35,-15,2,DF289E,0,,0,0.0,1,0,0,*35
$PFLAA,0,-21,30,-3,2,DDA6F0,0,,0,0.0,1,0,0,*75
$POV,A,-1.8710,1.3834,9.6914*3A
$POV,G,-.017,-.020,-.249*36
$POV,E,-0.02,P,966.02,Q,0.00*37
$GPRMC,115406.00,A,4834.29364,N,01155.97335,E,0.239,,200626,,,A*75
$GPGGA,115406.00,4834.29364,N,01155.97335,E,1,10,0.81,498.4,M,46.1,M,,*5B
$GPGSA,A,3,17,02,03,28,32,01,04,08,19,31,,,1.38,0.81,1.12*08
$PFLAU,4,1,1,1,0,,0,,,*4B
$PGRMZ,1289,F,2*08
$POV,A,-1.8728,1.4099,9.7038*3F
$POV,G,-.114,-.019,-.245*32
$POV,E,-0.06,P,966.02,Q,0.00*33
$PFLAA,0,-14,39,-5,2,DDED1C,0,,0,0.0,1,0,0,*0E
$PFLAA,0,-21,30,-3,2,DDA6F0,0,,0,0.0,1,0,0,*75
$PFLAA,0,-38,35,-15,2,DF289E,0,,0,0.1,1,0,0,*3B
$PFLAA,0,-132,60,-8,2,DDA6B9,0,,0,0.0,1,0,0,*45
$POV,A,-1.8702,1.3855,9.6860*3C
$POV,G,-.093,-.007,-.249*3F
$POV,E,-0.07,P,966.03,Q,0.00*33
$GPRMC,115407.00,A,4834.29364,N,01155.97334,E,0.128,,200626,,,A*76
$GPGGA,115407.00,4834.29364,N,01155.97334,E,1,10,0.81,498.3,M,46.1,M,,*5C
$GPGSA,A,3,17,02,03,28,32,01,04,08,19,31,,,1.38,0.81,1.12*08
$PFLAU,4,1,1,1,0,,0,,,*4B
$PGRMZ,1289,F,2*08
$PFLAA,0,-21,30,-3,2,DDA6F0,0,,0,0.0,1,0,0,*75
$POV,A,-1.8796,1.4043,9.6908*36
$POV,G,-.067,.004,-.228*1D
$POV,E,-0.06,P,966.03,Q,0.00*32
$PFLAA,0,-13,39,-5,2,DDED1C,0,,0,0.0,1,0,0,*09
$PFLAA,0,-132,60,-8,2,DDA6B9,0,,0,0.0,1,0,0,*45
$PFLAA,0,-37,35,-15,2,DF289E,0,,0,0.0,1,0,0,*35
$POV,A,-1.8836,1.3911,9.7013*38
$POV,G,-.088,-.012,-.245*3D
$POV,E,-0.01,P,966.02,Q,0.00*34
$GPRMC,115408.00,A,4834.29363,N,01155.97338,E,0.050,,200626,,,A*7C
$GPGGA,115408.00,4834.29363,N,01155.97338,E,1,11,0.81,498.1,M,46.1,M,,*5B
$GPGSA,A,3,17,02,03,28,32,01,04,08,19,31,22,,1.38,0.81,1.12*08
$PFLAU,4,1,1,1,0,,0,,,*4B
$PGRMZ,1289,F,2*08
$POV,A,-1.8608,1.3882,9.6939*30
$POV,G,-.134,.000,-.252*13
$POV,E,0.00,P,966.02,Q,0.00*18
$PFLAA,0,-21,30,-3,2,DDA6F0,0,,0,0.0,1,0,0,*75
$PFLAA,0,-37,35,-15,2,DF289E,0,,0,0.1,1,0,0,*34
$PFLAA,0,-13,39,-5,2,DDED1C,0,,0,0.0,1,0,0,*09
$PFLAA,0,-132,60,-8,2,DDA6B9,0,,0,0.0,1,0,0,*45
$POV,A,-1.8744,1.4337,9.6811*30
$POV,G,.008,-.012,-.235*1F
$POV,E,0.05,P,966.02,Q,0.00*1D
$GPRMC,115409.00,A,4834.29366,N,01155.97338,E,0.379,,200626,,,A*70
$GPGGA,115409.00,4834.29366,N,01155.97338,E,1,11,0.81,498.0,M,46.1,M,,*5E
$GPGSA,A,3,17,02,03,28,32,01,04,08,19,31,22,,1.38,0.81,1.12*08
$PFLAU,4,1,1,1,0,,0,,,*4B
$PGRMZ,1289,F,2*08
$PFLAA,0,-13,39,-5,2,DDED1C,0,,0,0.0,1,0,0,*09
$PFLAA,0,-21,30,-3,2,DDA6F0,0,,0,0.0,1,0,0,*75
$POV,A,-1.8703,1.3768,9.6943*3C
$POV,G,-.125,-.009,-.262*34
$POV,E,0.08,P,966.02,Q,0.00*10
$PFLAA,0,-132,60,-8,2,DDA6B9,0,,0,0.0,1,0,0,*45
$PFLAA,0,-37,35,-15,2,DF289E,0,,0,0.1,1,0,0,*34
$POV,A,-1.8707,1.4253,9.6907*32
$POV,G,-.115,-.013,-.237*3C
$POV,E,0.08,P,966.01,Q,0.00*13
$GPRMC,115410.00,A,4834.29366,N,01155.97336,E,0.036,,200626,,,A*7E
$GPGGA,115410.00,4834.29366,N,01155.97336,E,1,11,0.81,497.8,M,46.1,M,,*5F
$GPGSA,A,3,17,02,03,28,32,01,04,08,19,31,22,,1.38,0.81,1.12*08
$PFLAU,4,1,1,1,0,,0,,,*4B
$PGRMZ,1289,F,2*08
$POV,A,-1.8700,1.3905,9.7062*31
$POV,G,-.021,-.020,-.251*3A
$POV,E,0.06,P,966.02,Q,0.00*1E
$PFLAA,0,-13,39,-4,2,DDED1C,0,,0,0.0,1,0,0,*08
$PFLAA,0,-21,30,-2,2,DDA6F0,0,,0,0.0,1,0,0,*74
$PFLAA,0,-132,60,-7,2,DDA6B9,0,,0,0.0,1,0,0,*4A
$PFLAA,0,-37,35,-14,2,DF289E,0,,0,0.0,1,0,0,*34
$POV,A,-1.8777,1.3992,9.6842*34
$POV,G,-.167,.001,-.245*12
$POV,E,0.02,P,966.02,Q,0.00*1A
$GPRMC,115411.00,A,4834.29366,N,01155.97345,E,0.053,,200626,,,A*78
$GPGGA,115411.00,4834.29366,N,01155.97345,E,1,11,0.81,497.6,M,46.1,M,,*54
$GPGSA,A,3,17,02,03,28,32,01,04,08,19,31,22,,1.38,0.81,1.12*08
$PFLAU,4,1,1,1,0,,0,,,*4B
$PGRMZ,1292,F,2*02
$POV,A,-1.8708,1.4090,9.6904*33
$POV,G,-.063,-.026,-.247*3D
$POV,E,0.00,P,966.02,Q,0.00*18
$PFLAA,0,-37,35,-14,2,DF289E,0,,0,0.1,1,0,0,*35
$PFLAA,0,-13,39,-4,2,DDED1C,0,,0,0.0,1,0,0,*08
$PFLAA,0,-132,60,-7,2,DDA6B9,0,,0,0.0,1,0,0,*4A
$PFLAA,0,-21,30,-2,2,DDA6F0,0,,0,0.0,1,0,0,*74
$POV,A,-1.8637,1.3920,9.6965*3C
$POV,G,-.096,-.017,-.248*3A
$POV,E,-0.03,P,966.03,Q,0.00*37
$GPRMC,115412.00,A,4834.29367,N,01155.97354,E,0.141,,200626,,,A*78
$GPGGA,115412.00,4834.29367,N,01155.97354,E,1,11,0.81,497.7,M,46.1,M,,*57
$GPGSA,A,3,17,02,03,28,32,01,04,08,19,31,22,,1.38,0.81,1.12*08
$PFLAU,4,1,1,1,0,,0,,,*4B
$PGRMZ,1289,F,2*08
$PFLAA,0,-21,29,-2,2,DDA6F0,0,,0,0.0,1,0,0,*7C
$POV,A,-1.8712,1.4059,9.6884*34
$POV,G,-.105,-.027,-.234*39
$PFLAA,0,-13,38,-4,2,DDED1C,0,,0,0.0,1,0,0,*09
$POV,E,-0.03,P,966.04,Q,0.00*30
$PFLAA,0,-132,59,-7,2,DDA6B9,0,,0,0.0,1,0,0,*40
$PFLAA,0,-37,34,-14,2,DF289E,0,,0,0.0,1,0,0,*35
$POV,A,-1.8723,1.3968,9.6889*37
$POV,G,-.071,-.014,-.233*3C
$POV,E,-0.03,P,966.04,Q,0.00*30
$GPRMC,115413.00,A,4834.29368,N,01155.97365,E,0.070,,200626,,,A*77
$GPGGA,115413.00,4834.29368,N,01155.97365,E,1,11,0.81,497.7,M,46.1,M,,*5B
$GPGSA,A,3,17,02,03,28,32,01,04,08,19,31,22,,1.38,0.81,1.12*08
$PFLAU,4,1,1,1,0,,0,,,*4B
$PGRMZ,1289,F,2*08
$POV,A,-1.8695,1.4036,9.6905*3B
$POV,G,-.113,-.009,-.245*34
$POV,E,-0.03,P,966.04,Q,0.00*30
$PFLAA,0,-13,38,-4,2,DDED1C,0,,0,0.0,1,0,0,*09
$PFLAA,0,-21,29,-2,2,DDA6F0,0,,0,0.0,1,0,0,*7C
$PFLAA,0,-132,59,-7,2,DDA6B9,0,,0,0.0,1,0,0,*40
$PFLAA,0,-37,34,-14,2,DF289E,0,,0,0.0,1,0,0,*35
$POV,A,-1.8721,1.3982,9.6982*3B
$POV,G,-.073,.000,-.250*13
$POV,E,-0.02,P,966.04,Q,0.00*31
$GPRMC,115414.00,A,4834.29370,N,01155.97377,E,0.236,,200626,,,A*7A
$GPGGA,115414.00,4834.29370,N,01155.97377,E,1,11,0.81,497.6,M,46.1,M,,*57
$GPGSA,A,3,17,02,03,28,32,01,04,08,19,31,22,,1.38,0.81,1.12*08
$PFLAU,4,1,1,1,0,,0,,,*4B
$PGRMZ,1286,F,2*07
$POV,A,-1.8669,1.3972,9.6916*34
$POV,G,-.083,-.011,-.253*32
$POV,E,-0.01,P,966.04,Q,0.00*32
$PFLAA,0,-132,60,-7,2,DDA6B9,0,,0,0.0,1,0,0,*4A
$PFLAA,0,-38,34,-14,2,DF289E,0,,0,0.1,1,0,0,*3B
$PFLAA,0,-21,29,-2,2,DDA6F0,0,,0,0.0,1,0,0,*7C
$POV,A,-1.8629,1.4035,9.6941*3F
$POV,G,-.116,-.023,-.245*39
$POV,E,-0.02,P,966.04,Q,0.00*31
$GPRMC,115415.00,A,4834.29366,N,01155.97379,E,0.065,,200626,,,A*76
$PFLAA,0,-14,38,-4,2,DDED1C,0,,0,0.0,1,0,0,*0E
$GPGGA,115415.00,4834.29366,N,01155.97379,E,1,11,0.81,497.6,M,46.1,M,,*5F
$GPGSA,A,3,17,02,03,28,32,01,04,08,19,31,22,,1.38,0.81,1.12*08
$PFLAU,4,1,1,1,0,,0,,,*4B
$PGRMZ,1289,F,2*08
$POV,A,-1.8733,1.4008,9.6922*3E
$PFLAA,0,-21,29,-2,2,DDA6F0,0,,0,0.0,1,0,0,*7C
$POV,G,-.068,-.015,-.234*32
$POV,E,-0.02,P,966.04,Q,0.00*31
$PFLAA,0,-132,60,-7,2,DDA6B9,0,,0,0.0,1,0,0,*4A
$PFLAA,0,-37,34,-14,2,DF289E,0,,0,0.0,1,0,0,*35
$PFLAA,0,-13,38,-4,2,DDED1C,0,,0,0.0,1,0,0,*09
$POV,A,-1.8677,1.3996,9.6919*3E
$POV,G,-.092,-.014,-.239*3B
$POV,E,-0.03,P,966.04,Q,0.00*30
$GPRMC,115416.00,A,4834.29360,N,01155.97379,E,0.142,,200626,,,A*77
$GPGGA,115416.00,4834.29360,N,01155.97379,E,1,11,0.81,497.5,M,46.1,M,,*59
$GPGSA,A,3,17,02,03,28,32,01,04,08,19,31,22,,1.38,0.81,1.12*08
$PFLAU,4,1,1,1,0,,0,,,*4B
$PGRMZ,1289,F,2*08
$PFLAA,0,-131,60,-7,2,DDA6B9,0,,0,0.0,1,0,0,*49
$PFLAA,0,-37,34,-14,2,DF289E,0,,0,0.1,1,0,0,*34
$POV,A,-1.8759,1.4008,9.6981*3B
$POV,G,-.090,-.012,-.241*30
$POV,E,-0.04,P,966.03,Q,0.00*30
$PFLAA,0,-13,38,-4,2,DDED1C,0,,0,0.0,1,0,0,*09
$PFLAA,0,-20,29,-2,2,DDA6F0,0,,0,0.0,1,0,0,*7D
$POV,A,-1.8685,1.4049,9.6901*36
$POV,G,-.091,.004,-.242*18
$POV,E,-0.01,P,966.04,Q,0.00*32
$GPRMC,115417.00,A,4834.29358,N,01155.97381,E,0.182,,200626,,,A*76
$GPGGA,115417.00,4834.29358,N,01155.97381,E,1,11,0.81,497.5,M,46.1,M,,*54
$GPGSA,A,3,17,02,03,28,32,01,04,08,19,31,22,,1.38,0.81,1.12*08
$PFLAU,4,1,1,1,0,,0,,,*4B
$PGRMZ,1289,F,2*08
$PFLAA,0,-131,60,-7,2,DDA6B9,0,,0,0.0,1,0,0,*49
$POV,A,-1.8781,1.3977,9.6798*3E
$POV,G,-.082,.000,-.220*1A
$POV,E,-0.01,P,966.05,Q,0.00*33
$PFLAA,0,-37,33,-14,2,DF289E,0,,0,0.1,1,0,0,*33
$PFLAA,0,-13,38,-4,2,DDED1C,0,,0,0.0,1,0,0,*09
$PFLAA,0,-20,29,-2,2,DDA6F0,0,,0,0.0,1,0,0,*7D
$POV,A,-1.8726,1.3956,9.6988*3F
$POV,G,-.121,-.018,-.247*37
$POV,E,0.00,P,966.06,Q,0.00*1C
$GPRMC,115418.00,A,4834.29353,N,01155.97384,E,0.386,,200626,,,A*71
$GPGGA,115418.00,4834.29353,N,01155.97384,E,1,10,0.81,497.5,M,46.1,M,,*54
$GPGSA,A,3,17,02,03,28,32,01,04,08,19,31,,,1.38,0.81,1.12*08
$PFLAU,4,1,1,1,0,,0,,,*4B
$PGRMZ,1289,F,2*08
$POV,A,-1.8684,1.4108,9.6855*33
$POV,G,-.047,.007,-.234*11
$POV,E,0.02,P,966.06,Q,0.00*1E
$PFLAA,0,-13,38,-4,2,DDED1C,0,,0,0.0,1,0,0,*09
$PFLAA,0,-130,60,-7,2,DDA6B9,0,,0,0.0,1,0,0,*48
$PFLAA,0,-19,29,-2,2,DDA6F0,0,,0,0.0,1,0,0,*77
$PFLAA,0,-36,34,-14,2,DF289E,0,,0,0.1,1,0,0,*35
$POV,A,-1.8738,1.3970,9.7041*39
$POV,G,-.117,-.010,-.234*3E
$POV,E,0.00,P,966.06,Q,0.00*1C
$GPRMC,115419.00,A,4834.29351,N,01155.97389,E,0.315,,200626,,,A*75
$GPGGA,115419.00,4834.29351,N,01155.97389,E,1,11,0.81,497.4,M,46.1,M,,*5A
$GPGSA,A,3,17,02,03,28,32,01,04,08,19,31,22,,1.39,0.81,1.12*09
$PFLAU,4,1,1,1,0,,0,,,*4B
$PGRMZ,1286,F,2*07
$POV,A,-1.8751,1.3897,9.6914*36
$POV,G,-.129,-.007,-.253*34
$POV,E,0.00,P,966.06,Q,0.00*1C
$PFLAA,0,-20,28,-2,2,DDA6F0,0,,0,0.0,1,0,0,*7C
$PFLAA,0,-131,59,-7,2,DDA6B9,0,,0,0.0,1,0,0,*43
$PFLAA,0,-13,38,-4,2,DDED1C,0,,0,0.0,1,0,0,*09
$PFLAA,0,-37,33,-14,2,DF289E,0,,0,0.1,1,0,0,*33
$POV,A,-1.8765,1.4241,9.6863*36
$POV,G,-.047,-.013,-.236*3B
$POV,E,0.01,P,966.06,Q,0.00*1D
$GPRMC,115420.00,A,4834.29354,N,01155.97394,E,0.099,,200626,,,A*71
$GPGGA,115420.00,4834.29354,N,01155.97394,E,1,11,0.81,497.4,M,46.1,M,,*59
$GPGSA,A,3,17,02,03,28,32,01,04,08,19,31,22,,1.39,0.81,1.12*09
$PFLAU,4,1,1,1,0,,0,,,*4B
$PGRMZ,1286,F,2*07
$POV,A,-1.8663,1.3952,9.6927*3E
$POV,G,-.121,-.019,-.236*30
$POV,E,0.04,P,966.05,Q,0.00*1B
$PFLAA,0,-20,28,-2,2,DDA6F0,0,,0,0.0,1,0,0,*7C
$PFLAA,0,-131,60,-7,2,DDA6B9,0,,0,0.0,1,0,0,*49
$PFLAA,0,-13,38,-4,2,DDED1C,0,,0,0.0,1,0,0,*09
$PFLAA,0,-37,34,-14,2,DF289E,0,,0,0.1,1,0,0,*34
$POV,A,-1.8620,1.3974,9.6993*32
$POV,G,-.109,-.013,-.240*31
$POV,E,0.08,P,966.05,Q,0.00*17
$GPRMC,115421.00,A,4834.29356,N,01155.97394,E,0.146,,200626,,,A*71
$GPGGA,115421.00,4834.29356,N,01155.97394,E,1,11,0.81,497.4,M,46.1,M,,*5A
$GPGSA,A,3,17,02,03,28,32,01,04,08,19,31,22,,1.39,0.81,1.12*09
$PFLAU,4,1,1,1,0,,0,,,*4B
$PGRMZ,1289,F,2*08
$PFLAA,0,-20,28,-2,2,DDA6F0,0,,0,0.0,1,0,0,*7C
$POV,A,-1.8746,1.4163,9.6898*30
$POV,G,-.027,.003,-.220*16
$POV,E,0.07,P,966.05,Q,0.00*18
$PFLAA,0,-130,59,-7,2,DDA6B9,0,,0,0.0,1,0,0,*42
$PFLAA,0,-37,34,-13,2,DF289E,0,,0,0.0,1,0,0,*32
$PFLAA,0,-13,38,-4,2,DDED1C,0,,0,0.0,1,0,0,*09
$POV,A,-1.8670,1.3869,9.6966*30
$POV,G,-.123,-.009,-.256*35
$POV,E,0.02,P,966.04,Q,0.00*1C
$GPRMC,115422.00,A,4834.29355,N,01155.97393,E,0.103,,200626,,,A*77
$GPGGA,115422.00,4834.29355,N,01155.97393,E,1,11,0.81,497.3,M,46.1,M,,*5A
$GPGSA,A,3,17,02,03,28,32,01,04,08,19,31,22,,1.39,0.81,1.12*09
$PFLAU,4,1,1,1,0,,0,,,*4B
$PGRMZ,1286,F,2*07
$PFLAA,0,-13,38,-4,2,DDED1C,0,,0,0.0,1,0,0,*09
$PFLAA,0,-37,34,-13,2,DF289E,0,,0,0.0,1,0,0,*32
$POV,A,-1.8720,1.4134,9.6891*3B
$PFLAA,0,-130,60,-7,2,DDA6B9,0,,0,0.0,1,0,0,*48
$POV,G,-.067,-.018,-.242*31
$POV,E,-0.02,P,966.03,Q,0.00*36
$PFLAA,0,-20,28,-2,2,DDA6F0,0,,0,0.0,1,0,0,*7C
$POV,A,-1.8676,1.3967,9.6872*3D
$POV,G,-.081,-.016,-.250*34
$POV,E,-0.03,P,966.03,Q,0.00*37
$GPRMC,115423.00,A,4834.29348,N,01155.97388,E,0.151,,200626,,,A*77
$GPGGA,115423.00,4834.29348,N,01155.97388,E,1,10,0.81,497.2,M,46.1,M,,*5D
$GPGSA,A,3,17,02,03,28,32,01,04,08,19,31,,,1.39,0.81,1.12*09
$PFLAU,4,1,1,1,0,,0,,,*4B
$PGRMZ,1289,F,2*08
$PFLAA,0,-20,28,-2,2,DDA6F0,0,,0,0.0,1,0,0,*7C
$POV,A,-1.8743,1.4038,9.6987*35
$POV,G,-.136,-.022,-.256*38
$POV,E,-0.01,P,966.04,Q,0.00*32
$PFLAA,0,-130,60,-7,2,DDA6B9,0,,0,0.0,1,0,0,*48
$PFLAA,0,-13,38,-4,2,DDED1C,0,,0,0.0,1,0,0,*09
$PFLAA,0,-37,34,-13,2,DF289E,0,,0,0.0,1,0,0,*32
$POV,A,-1.8707,1.3986,9.6933*31
$POV,G,-.101,-.009,-.247*35
$POV,E,0.02,P,966.04,Q,0.00*1C
$GPRMC,115424.00,A,4834.29344,N,01155.97380,E,0.130,,200626,,,A*73
$GPGGA,115424.00,4834.29344,N,01155.97380,E,1,10,0.81,497.1,M,46.1,M,,*5D
$GPGSA,A,3,17,02,03,28,32,01,04,08,19,31,,,1.39,0.81,1.12*09
$PFLAU,4,1,1,1,0,,0,,,*4B
$PGRMZ,1292,F,2*02
$POV,A,-1.8716,1.4029,9.6920*38
$POV,G,-.126,-.026,-.253*38
$POV,E,0.05,P,966.04,Q,0.00*1B
$PFLAA,0,-130,60,-8,2,DDA6B9,0,,0,0.0,1,0,0,*47
$PFLAA,0,-37,35,-13,2,DF289E,0,,0,0.1,1,0,0,*32
$PFLAA,0,-13,38,-4,2,DDED1C,0,,0,0.0,1,0,0,*09
$PFLAA,0,-20,28,-2,2,DDA6F0,0,,0,0.0,1,0,0,*7C
$POV,A,-1.8664,1.3919,9.6941*36
$POV,G,-.122,-.009,-.248*3B
$POV,E,0.03,P,966.06,Q,0.00*1F
$GPRMC,115425.00,A,4834.29342,N,01155.97377,E,0.087,,200626,,,A*71
$GPGGA,115425.00,4834.29342,N,01155.97377,E,1,10,0.81,497.0,M,46.1,M,,*53
$GPGSA,A,3,17,02,03,28,32,01,04,08,19,31,,,1.39,0.81,1.12*09
$PFLAU,4,1,1,1,0,,0,,,*4B
$PGRMZ,1286,F,2*07
$PFLAA,0,-13,38,-4,2,DDED1C,0,,0,0.0,1,0,0,*09
$PFLAA,0,-130,60,-8,2,DDA6B9,0,,0,0.0,1,0,0,*47
$POV,A,-1.8751,1.4156,9.6873*35
$POV,G,-.093,.009,-.247*12
$POV,E,0.00,P,966.07,Q,0.00*1D
$PFLAA,0,-20,28,-2,2,DDA6F0,0,,0,0.0,1,0,0,*7C
$POV,A,-1.8630,1.4008,9.6948*30
$POV,G,-.044,-.016,-.235*3E
$POV,E,-0.01,P,966.07,Q,0.00*31
$PFLAA,0,-37,35,-12,2,DF289E,0,,0,0.1,1,0,0,*33
$GPRMC,115426.00,A,4834.29342,N,01155.97375,E,0.156,,200626,,,A*7D
$GPGGA,115426.00,4834.29342,N,01155.97375,E,1,10,0.81,497.1,M,46.1,M,,*53
$GPGSA,A,3,17,02,03,28,32,01,04,08,19,31,,,1.39,0.81,1.12*09
$PFLAL,11542502=X@lnwtwiku[vkyjZk]jGU;PFOv%*2B
$PFLAU,4,1,1,1,0,,0,,,*4B
$PGRMZ,1289,F,2*08
$PFLAA,0,-13,38,-4,2,DDED1C,0,,0,0.1,1,0,0,*08
$POV,A,-1.8704,1.3830,9.6833*3F
$POV,G,-.158,-.011,-.272*36
$POV,E,-0.04,P,966.08,Q,0.00*3B
$PFLAA,0,-131,60,-8,2,DDA6B9,0,,0,0.0,1,0,0,*46
$PFLAA,0,-20,29,-2,2,DDA6F0,0,,0,0.0,1,0,0,*7D
$POV,A,-1.8778,1.4135,9.6961*39
$POV,G,-.057,-.020,-.233*3F
$POV,E,-0.05,P,966.08,Q,0.00*3A
$GPRMC,115427.00,A,4834.29337,N,01155.97370,E,0.045,,200626,,,A*78
$PFLAA,0,-37,35,-12,2,DF289E,0,,0,0.1,1,0,0,*33
$GPGGA,115427.00,4834.29337,N,01155.97370,E,1,10,0.81,497.0,M,46.1,M,,*54
$GPGSA,A,3,17,02,03,28,32,01,04,08,19,31,,,1.39,0.81,1.12*09
$PFLAU,4,1,1,1,0,,0,,,*4B
$PGRMZ,1292,F,2*02
$POV,A,-1.8739,1.3917,9.6978*3B
$POV,G,-.082,-.001,-.251*30
$POV,E,-0.04,P,966.08,Q,0.00*3B
$PFLAA,0,-19,28,-2,2,DDA6F0,0,,0,0.0,1,0,0,*76
$PFLAA,0,-37,35,-11,2,DF289E,0,,0,0.1,1,0,0,*30
$PFLAA,0,-13,38,-4,2,DDED1C,0,,0,0.0,1,0,0,*09
$PFLAL,115427GPS 10 36*3F
$PFLAA,0,-130,60,-8,2,DDA6B9,0,,0,0.0,1,0,0,*47
$POV,A,-1.8744,1.4147,9.6961*33
$POV,G,-.112,-.003,-.251*3A
$POV,E,-0.04,P,966.08,Q,0.00*3B
$GPRMC,115428.00,A,4834.29337,N,01155.97370,E,0.218,,200626,,,A*7D
$GPGGA,115428.00,4834.29337,N,01155.97370,E,1,10,0.81,497.0,M,46.1,M,,*5B
$GPGSA,A,3,17,02,03,28,32,01,04,08,19,31,,,1.39,0.81,1.12*09
$PFLAU,4,1,1,1,0,,0,,,*4B
$PGRMZ,1286,F,2*07
$POV,A,-1.8600,1.3968,9.6957*35
$POV,G,-.020,-.006,-.236*3E
$POV,E,-0.02,P,966.08,Q,0.00*3D
$PFLAA,0,-20,28,-2,2,DDA6F0,0,,0,0.0,1,0,0,*7C
$PFLAA,0,-13,38,-4,2,DDED1C,0,,0,0.0,1,0,0,*09
$PFLAA,0,-131,60,-8,2,DDA6B9,0,,0,0.0,1,0,0,*46
$POV,A,-1.8753,1.4040,9.6891*3D
$POV,G,-.133,-.013,-.230*3F
$POV,E,-0.01,P,966.08,Q,0.00*3E
$PFLAA,0,-37,35,-11,2,DF289E,0,,0,0.1,1,0,0,*30
$GPRMC,115429.00,A,4834.29340,N,01155.97379,E,0.362,,200626,,,A*79
$GPGGA,115429.00,4834.29340,N,01155.97379,E,1,11,0.81,496.9,M,46.1,M,,*5A
$GPGSA,A,3,17,02,03,28,32,01,04,08,19,31,22,,1.39,0.81,1.12*09
$PFLAL,11542802=X@lnPLOcoy%snto_n`ooZtgngAY*59
$PFLAU,4,1,1,1,0,,0,,,*4B
$PGRMZ,1286,F,2*07
$PFLAA,0,-37,35,-10,2,DF289E,0,,0,0.0,1,0,0,*30
$PFLAA,0,-131,60,-7,2,DDA6B9,0,,0,0.0,1,0,0,*49
$POV,A,-1.8707,1.3999,9.6874*3D
$POV,G,-.104,-.012,-.259*35
$POV,E,-0.01,P,966.08,Q,0.00*3E
$PFLAA,0,-13,38,-3,2,DDED1C,0,,0,0.0,1,0,0,*0E
$PFLAA,0,-20,28,-1,2,DDA6F0,0,,0,0.0,1,0,0,*7F
$POV,A,-1.8808,1.3929,9.7009*35
$POV,G,-.122,-.018,-.267*36
$POV,E,0.00,P,966.08,Q,0.00*12
$GPRMC,115430.00,A,4834.29347,N,01155.97387,E,0.096,,200626,,,A*7F
$GPGGA,115430.00,4834.29347,N,01155.97387,E,1,11,0.81,497.0,M,46.1,M,,*5C
$GPGSA,A,3,17,02,03,28,32,01,04,08,19,31,22,,1.39,0.81,1.12*09
$PFLAU,4,1,1,1,0,,0,,,*4B
$PGRMZ,1286,F,2*07
$POV,A,-1.8705,1.3924,9.6796*3A
$POV,G,-.106,-.008,-.245*31
$POV,E,0.00,P,966.08,Q,0.00*12
$PFLAA,0,-13,38,-4,2,DDED1C,0,,0,0.0,1,0,0,*09
$PFLAA,0,-131,60,-8,2,DDA6B9,0,,0,0.0,1,0,0,*46
$PFLAA,0,-20,29,-2,2,DDA6F0,0,,0,0.0,1,0,0,*7D
$PFLAA,0,-37,35,-11,2,DF289E,0,,0,0.1,1,0,0,*30
$POV,A,-1.8775,1.4118,9.7101*34
$POV,G,-.076,-.022,-.225*39
$POV,E,0.00,P,966.08,Q,0.00*12
$GPRMC,115431.00,A,4834.29349,N,01155.97387,E,0.065,,200626,,,A*7C
$GPGGA,115431.00,4834.29349,N,01155.97387,E,1,11,0.81,496.9,M,46.1,M,,*5B
$GPGSA,A,3,17,02,03,28,32,01,04,08,19,31,22,,1.39,0.81,1.12*09
$PFLAU,4,1,1,1,0,,0,,,*4B
$PGRMZ,1302,F,2*0A
$PFLAA,0,-19,29,-2,2,DDA6F0,0,,0,0.0,1,0,0,*77
$POV,A,-1.8661,1.3882,9.6917*33
$POV,G,-.096,-.027,-.252*32
$POV,E,-0.02,P,966.08,Q,0.00*3D
$PFLAA,0,-131,60,-8,2,DDA6B9,0,,0,0.0,1,0,0,*46
$PFLAA,0,-13,38,-4,2,DDED1C,0,,0,0.0,1,0,0,*09
$POV,A,-1.8770,1.4228,9.6914*3C
$POV,G,-.110,-.016,-.250*3D
$POV,E,-0.03,P,966.08,Q,0.00*3C
$PFLAA,0,-37,35,-10,2,DF289E,0,,0,0.0,1,0,0,*30
$GPRMC,115432.00,A,4834.29349,N,01155.97389,E,0.081,,200626,,,A*7B
$GPGGA,115432.00,4834.29349,N,01155.97389,E,1,11,0.81,496.8,M,46.1,M,,*57
$GPGSA,A,3,17,02,03,28,32,01,04,08,19,31,22,,1.39,0.81,1.12*09
$PFLAU,4,1,1,1,0,,0,,,*4B
$PGRMZ,1286,F,2*07
$POV,A,-1.8659,1.3902,9.6946*35
$POV,G,-.110,-.016,-.253*3E
$POV,E,-0.04,P,966.07,Q,0.00*34
$PFLAA,0,-131,61,-7,2,DDA6B9,0,,0,0.0,1,0,0,*48
$PFLAA,0,-13,38,-3,2,DDED1C,0,,0,0.0,1,0,0,*0E
$PFLAA,0,-19,29,-1,2,DDA6F0,0,,0,0.0,1,0,0,*74
$PFLAA,0,-37,36,-9,2,DF289E,0,,0,0.0,1,0,0,*0B
$POV,A,-1.8740,1.4028,9.6915*3C
$POV,G,-.070,-.013,-.257*38
$POV,E,-0.06,P,966.07,Q,0.00*36
$GPRMC,115433.00,A,4834.29354,N,01155.97394,E,0.179,,200626,,,A*7C
$GPGGA,115433.00,4834.29354,N,01155.97394,E,1,11,0.81,496.9,M,46.1,M,,*57
$GPGSA,A,3,17,02,03,28,32,01,04,08,19,31,22,,1.39,0.81,1.12*09
$PFLAU,4,1,1,1,0,,0,,,*4B
$PGRMZ,1286,F,2*07
$PFLAA,0,-131,61,-7,2,DDA6B9,0,,0,0.0,1,0,0,*48
$POV,A,-1.8702,1.3989,9.6989*3A
$POV,G,-.089,-.020,-.242*3A
$POV,E,-0.04,P,966.08,Q,0.00*3B
$PFLAA,0,-13,38,-4,2,DDED1C,0,,0,0.0,1,0,0,*09
$PFLAA,0,-19,29,-1,2,DDA6F0,0,,0,0.0,1,0,0,*74
$PFLAA,0,-38,36,-9,2,DF289E,0,,0,0.1,1,0,0,*05
$POV,A,-1.8695,1.4049,9.6946*34
$POV,G,-.110,-.019,-.232*36
$POV,E,-0.04,P,966.08,Q,0.00*3B
$GPRMC,115434.00,A,4834.29360,N,01155.97401,E,0.090,,200626,,,A*71
$GPGGA,115434.00,4834.29360,N,01155.97401,E,1,11,0.81,497.0,M,46.1,M,,*54
$GPGSA,A,3,17,02,03,28,32,01,04,08,19,31,22,,1.39,0.81,1.12*09
$PFLAU,4,1,1,1,0,,0,,,*4B
$PGRMZ,1286,F,2*07
$PFLAA,0,-131,61,-8,2,DDA6B9,0,,0,0.0,1,0,0,*47
$POV,A,-1.8502,1.3530,9.6935*31
$POV,G,-.094,-.003,-.259*3D
$POV,E,-0.02,P,966.07,Q,0.00*32
$PFLAA,0,-20,29,-2,2,DDA6F0,0,,0,0.0,1,0,0,*7D
$PFLAA,0,-13,38,-5,2,DDED1C,0,,0,0.0,1,0,0,*08
$PFLAA,0,-37,36,-10,2,DF289E,0,,0,0.1,1,0,0,*32
$POV,A,-1.8966,1.4440,9.6830*3A
$POV,G,-.035,.000,-.215*10
$POV,E,0.00,P,966.07,Q,0.00*1D
$GPRMC,115435.00,A,4834.29360,N,01155.97410,E,0.228,,200626,,,A*71
$GPGGA,115435.00,4834.29360,N,01155.97410,E,1,11,0.81,496.9,M,46.1,M,,*5D
$GPGSA,A,3,17,02,03,28,32,01,04,08,19,31,22,,1.39,0.81,1.12*09
$PFLAU,4,1,1,1,0,,0,,,*4B
$PGRMZ,1286,F,2*07
$PFLAA,0,-13,38,-4,2,DDED1C,0,,0,0.1,1,0,0,*08
$POV,A,-1.8677,1.4012,9.7051*38
$POV,G,-.146,-.007,-.261*3C
$POV,E,0.00,P,966.07,Q,0.00*1D
$PFLAA,0,-37,35,-9,2,DF289E,0,,0,0.0,1,0,0,*08
$PFLAA,0,-19,28,-1,2,DDA6F0,0,,0,0.0,1,0,0,*75
$PFLAA,0,-130,60,-7,2,DDA6B9,0,,0,0.0,1,0,0,*48
$POV,A,-1.8732,1.3988,9.6855*38
$POV,G,-.038,-.004,-.249*3D
$POV,E,0.01,P,966.06,Q,0.00*1D
$GPRMC,115436.00,A,4834.29353,N,01155.97410,E,0.186,,200626,,,A*75
$GPGGA,115436.00,4834.29353,N,01155.97410,E,1,11,0.81,496.7,M,46.1,M,,*50
$GPGSA,A,3,17,02,03,28,32,01,04,08,19,31,22,,1.39,0.81,1.12*09
$PFLAU,4,1,1,1,0,,0,,,*4B
$PGRMZ,1286,F,2*07
$POV,A,-1.8660,1.3868,9.6961*37
$POV,G,-.105,-.018,-.250*37
$POV,E,0.01,P,966.07,Q,0.00*1C
$PFLAA,0,-130,61,-7,2,DDA6B9,0,,0,0.0,1,0,0,*49
$PFLAA,0,-37,36,-9,2,DF289E,0,,0,0.1,1,0,0,*0A
$PFLAA,0,-13,38,-4,2,DDED1C,0,,0,0.0,1,0,0,*09
$PFLAA,0,-19,29,-1,2,DDA6F0,0,,0,0.0,1,0,0,*74
$POV,A,-1.8748,1.4244,9.6918*31
$POV,G,-.110,-.018,-.214*33
$POV,E,-0.01,P,966.06,Q,0.00*30
$GPRMC,115437.00,A,4834.29352,N,01155.97406,E,0.252,,200626,,,A*78
$GPGGA,115437.00,4834.29352,N,01155.97406,E,1,11,0.81,496.7,M,46.1,M,,*57
$GPGSA,A,3,17,02,03,28,32,01,04,08,19,31,22,,1.39,0.81,1.12*09
$PFLAU,4,1,1,1,0,,0,,,*4B
$PGRMZ,1289,F,2*08
$PFLAA,0,-20,29,-1,2,DDA6F0,0,,0,0.0,1,0,0,*7E
$POV,A,-1.8638,1.3885,9.6924*38
$POV,G,-.045,-.009,-.240*33
$POV,E,0.00,P,966.06,Q,0.00*1C
$PFLAA,0,-13,38,-4,2,DDED1C,0,,0,0.0,1,0,0,*09
$PFLAA,0,-131,61,-7,2,DDA6B9,0,,0,0.0,1,0,0,*48
$PFLAA,0,-37,36,-9,2,DF289E,0,,0,0.1,1,0,0,*0A
$POV,A,-1.8748,1.4031,9.6989*39
$POV,G,-.097,-.010,-.248*3C
$POV,E,-0.02,P,966.07,Q,0.00*32
$GPRMC,115438.00,A,4834.29354,N,01155.97401,E,0.103,,200626,,,A*71
$GPGGA,115438.00,4834.29354,N,01155.97401,E,1,11,0.75,496.7,M,46.1,M,,*52
$GPGSA,A,3,17,02,03,28,32,01,04,08,19,31,22,,1.27,0.75,1.02*0C
$PFLAU,4,1,1,1,0,,0,,,*4B
$PGRMZ,1289,F,2*08
$PFLAA,0,-13,38,-4,2,DDED1C,0,,0,0.1,1,0,0,*08
$PFLAA,0,-20,29,-1,2,DDA6F0,0,,0,0.0,1,0,0,*7E
$POV,A,-1.8702,1.4015,9.6948*3C
$POV,G,-.108,-.018,-.242*39
$POV,E,0.00,P,966.07,Q,0.00*1D
$PFLAA,0,-131,61,-7,2,DDA6B9,0,,0,0.0,1,0,0,*48
$PFLAA,0,-37,36,-9,2,DF289E,0,,0,0.1,1,0,0,*0A
$POV,A,-1.8678,1.3980,9.6927*3B
$POV,G,-.062,-.006,-.254*3C
$POV,E,0.02,P,966.07,Q,0.00*1F
$GPRMC,115439.00,A,4834.29352,N,01155.97403,E,0.302,,200626,,,A*77
$GPGGA,115439.00,4834.29352,N,01155.97403,E,1,11,0.75,496.6,M,46.1,M,,*56
$GPGSA,A,3,17,02,03,28,32,01,04,08,19,31,22,,1.27,0.75,1.02*0C
$PFLAU,4,1,1,1,0,,0,,,*4B
$PGRMZ,1289,F,2*08
$POV,A,-1.8696,1.3989,9.6931*35
$POV,G,-.126,-.004,-.248*32
$POV,E,0.02,P,966.07,Q,0.00*1F
$PFLAA,0,-19,29,-1,2,DDA6F0,0,,0,0.0,1,0,0,*74
$PFLAA,0,-37,36,-9,2,DF289E,0,,0,0.1,1,0,0,*0A
$PFLAA,0,-13,38,-4,2,DDED1C,0,,0,0.0,1,0,0,*09
$PFLAA,0,-130,61,-7,2,DDA6B9,0,,0,0.0,1,0,0,*49
$POV,A,-1.8850,1.3971,9.6993*3E
$POV,G,-.088,-.018,-.237*32
$POV,E,0.04,P,966.07,Q,0.00*19
$GPRMC,115440.00,A,4834.29350,N,01155.97408,E,0.196,,200626,,,A*7F
$GPGGA,115440.00,4834.29350,N,01155.97408,E,1,11,0.75,496.5,M,46.1,M,,*52
$GPGSA,A,3,17,02,03,28,32,01,04,08,19,31,22,,1.27,0.75,1.02*0C
$PFLAU,4,1,1,1,0,,0,,,*4B
$PGRMZ,1289,F,2*08
$PFLAA,0,-13,38,-4,2,DDED1C,0,,0,0.0,1,0,0,*09
$POV,A,-1.8616,1.4089,9.6808*38
$POV,G,-.100,.000,-.241*16
$POV,E,0.03,P,966.06,Q,0.00*1F
$PFLAA,0,-20,28,-1,2,DDA6F0,0,,0,0.0,1,0,0,*7F
$PFLAA,0,-130,60,-7,2,DDA6B9,0,,0,0.0,1,0,0,*48
$PFLAA,0,-37,35,-9,2,DF289E,0,,0,0.0,1,0,0,*08
$POV,A,-1.8737,1.3924,9.6883*30
$POV,G,-.106,-.003,-.247*38
$POV,E,0.04,P,966.06,Q,0.00*18
$GPRMC,115441.00,A,4834.29349,N,01155.97405,E,0.197,,200626,,,A*7A
$GPGGA,115441.00,4834.29349,N,01155.97405,E,1,11,0.75,496.4,M,46.1,M,,*57
$GPGSA,A,3,17,02,03,28,32,01,04,08,19,31,22,,1.27,0.75,1.02*0C
$PFLAU,4,1,1,1,0,,0,,,*4B
$PGRMZ,1289,F,2*08
$PFLAA,0,-13,38,-4,2,DDED1C,0,,0,0.0,1,0,0,*09
$POV,A,-1.8782,1.4110,9.7057*36
$POV,G,-.073,-.029,-.245*31
$POV,E,0.02,P,966.06,Q,0.00*1E
$PFLAA,0,-20,29,-1,2,DDA6F0,0,,0,0.0,1,0,0,*7E
$PFLAA,0,-130,61,-7,2,DDA6B9,0,,0,0.0,1,0,0,*49
$PFLAA,0,-37,36,-9,2,DF289E,0,,0,0.1,1,0,0,*0A
$POV,A,-1.8723,1.3922,9.6873*3C
$POV,G,-.095,-.020,-.224*37
$POV,E,0.02,P,966.06,Q,0.00*1E
$GPRMC,115442.00,A,4834.29352,N,01155.97406,E,0.158,,200626,,,A*73
$GPGGA,115442.00,4834.29352,N,01155.97406,E,1,11,0.75,496.5,M,46.1,M,,*5C
$GPGSA,A,3,17,02,03,28,32,01,04,08,19,31,22,,1.27,0.75,1.02*0C
$PFLAL,115441AZNSTAT 0 0*38
$PFLAU,4,1,1,1,0,,0,,,*4B
$PGRMZ,1292,F,2*02
$POV,A,-1.8637,1.4157,9.7003*3B
$POV,G,-.115,-.018,-.232*32
$POV,E,0.02,P,966.06,Q,0.00*1E
$PFLAA,0,-37,36,-9,2,DF289E,0,,0,0.0,1,0,0,*0B
$PFLAA,0,-130,60,-7,2,DDA6B9,0,,0,0.0,1,0,0,*48
$PFLAA,0,-20,29,-1,2,DDA6F0,0,,0,0.0,1,0,0,*7E
$PFLAA,0,-13,38,-4,2,DDED1C,0,,0,0.0,1,0,0,*09
$POV,A,-1.8697,1.3973,9.6936*36
$POV,G,-.056,-.006,-.231*38
$POV,E,0.03,P,966.05,Q,0.00*1C
$GPRMC,115443.00,A,4834.29356,N,01155.97412,E,0.052,,200626,,,A*78
$GPGGA,115443.00,4834.29356,N,01155.97412,E,1,11,0.75,496.6,M,46.1,M,,*5F
$GPGSA,A,3,17,02,03,28,32,01,04,08,19,31,22,,1.27,0.75,1.02*0C
$PFLAU,4,1,1,1,0,,0,,,*4B
$PGRMZ,1286,F,2*07
$PFLAA,0,-20,28,-1,2,DDA6F0,0,,0,0.0,1,0,0,*7F
$POV,A,-1.8765,1.4072,9.6832*30
$POV,G,-.112,-.012,-.244*3E
$POV,E,0.05,P,966.04,Q,0.00*1B
$PFLAA,0,-130,60,-8,2,DDA6B9,0,,0,0.0,1,0,0,*47
$PFLAA,0,-13,38,-4,2,DDED1C,0,,0,0.0,1,0,0,*09
$POV,A,-1.8652,1.3933,9.7061*31
$POV,G,-.113,-.014,-.233*39
$POV,E,0.08,P,966.04,Q,0.00*16
$GPRMC,115444.00,A,4834.29355,N,01155.97412,E,0.186,,200626,,,A*74
$GPGGA,115444.00,4834.29355,N,01155.97412,E,1,11,0.81,496.6,M,46.1,M,,*50
$GPGSA,A,3,17,02,03,28,32,01,04,08,19,31,22,,1.39,0.81,1.12*09
$PFLAA,0,-37,36,-8,2,DF289E,0,,0,0.0,1,0,0,*0A
$PFLAU,4,1,1,1,0,,0,,,*4B
$PGRMZ,1289,F,2*08
$PFLAA,0,-37,36,-8,2,DF289E,0,,0,0.1,1,0,0,*0B
$PFLAA,0,-130,61,-8,2,DDA6B9,0,,0,0.0,1,0,0,*46
$POV,A,-1.9028,1.4148,9.6829*3D
$POV,G,-.066,-.003,-.240*38
$POV,E,0.11,P,966.05,Q,0.00*1F
$PFLAA,0,-13,38,-4,2,DDED1C,0,,0,0.0,1,0,0,*09
$PFLAA,0,-20,29,-1,2,DDA6F0,0,,0,0.0,1,0,0,*7E
$POV,A,-1.7716,1.3882,9.7039*39
$POV,G,-.123,-.038,-.181*3E
$POV,E,0.12,P,966.04,Q,0.00*1D
$GPRMC,115445.00,A,4834.29350,N,01155.97406,E,0.101,,200626,,,A*7A
$GPGGA,115445.00,4834.29350,N,01155.97406,E,1,11,0.81,496.6,M,46.1,M,,*51
$GPGSA,A,3,17,02,03,28,32,01,04,08,19,31,22,,1.39,0.81,1.12*09
$PFLAU,4,1,1,1,0,,0,,,*4B
$PGRMZ,1292,F,2*02
$POV,A,-1.9665,1.3992,9.6798*3F
$POV,G,-.070,.000,-.293*1F
$POV,E,0.15,P,966.03,Q,0.00*1D
$PFLAA,0,-130,61,-8,2,DDA6B9,0,,0,0.0,1,0,0,*46
$PFLAA,0,-13,38,-4,2,DDED1C,0,,0,0.0,1,0,0,*09
$PFLAA,0,-37,36,-8,2,DF289E,0,,0,0.0,1,0,0,*0A
$PFLAA,0,-20,29,-1,2,DDA6F0,0,,0,0.0,1,0,0,*7E
$POV,A,-1.8503,1.4079,9.6997*37
$POV,G,-.116,-.025,-.254*3F
$POV,E,0.15,P,966.02,Q,0.00*1C
$GPRMC,115446.00,A,4834.29346,N,01155.97404,E,0.154,,200626,,,A*7C
$GPGGA,115446.00,4834.29346,N,01155.97404,E,1,11,0.75,496.7,M,46.1,M,,*5D
$GPGSA,A,3,17,02,03,28,32,01,04,08,19,31,22,,1.27,0.75,1.02*0C
$PFLAU,4,1,1,1,0,,0,,,*4B
$PGRMZ,1289,F,2*08
$POV,A,-1.8690,1.4052,9.6952*3E
$POV,G,-.123,-.017,-.252*3E
$POV,E,0.15,P,966.02,Q,0.00*1C
$PFLAA,0,-13,38,-4,2,DDED1C,0,,0,0.0,1,0,0,*09
$PFLAA,0,-20,29,-1,2,DDA6F0,0,,0,0.0,1,0,0,*7E
$PFLAA,0,-130,61,-8,2,DDA6B9,0,,0,0.0,1,0,0,*46
$PFLAA,0,-37,36,-8,2,DF289E,0,,0,0.1,1,0,0,*0B
$POV,A,-1.8717,1.3980,9.6889*36
$POV,G,-.049,-.030,-.247*32
$POV,E,0.14,P,966.02,Q,0.00*1D
$GPRMC,115447.00,A,4834.29345,N,01155.97401,E,0.100,,200626,,,A*7A
$GPGGA,115447.00,4834.29345,N,01155.97401,E,1,11,0.75,496.7,M,46.1,M,,*5A
$GPGSA,A,3,17,02,03,28,32,01,04,08,19,31,22,,1.27,0.75,1.02*0C
$PFLAU,4,1,1,1,0,,0,,,*4B
$PGRMZ,1289,F,2*08
$POV,A,-1.8846,1.4091,9.6986*3D
$POV,G,-.019,-.040,-.234*34
$POV,E,0.07,P,966.01,Q,0.00*1C
$PFLAA,0,-37,36,-8,2,DF289E,0,,0,0.1,1,0,0,*0B
$PFLAA,0,-20,29,-1,2,DDA6F0,0,,0,0.0,1,0,0,*7E
$PFLAA,0,-130,61,-8,2,DDA6B9,0,,0,0.0,1,0,0,*46
$PFLAA,0,-13,38,-3,2,DDED1C,0,,0,0.0,1,0,0,*0E
$POV,A,-1.8595,1.3773,9.6923*3D
$POV,G,-.130,-.042,-.233*3B
$POV,E,0.03,P,966.03,Q,0.00*1A
$GPRMC,115448.00,A,4834.29343,N,01155.97401,E,0.168,,200626,,,A*7D
$GPGGA,115448.00,4834.29343,N,01155.97401,E,1,10,0.85,496.6,M,46.1,M,,*5C
$GPGSA,A,3,17,02,03,28,32,01,04,19,31,22,,,1.40,0.85,1.11*08
$PFLAU,4,1,1,1,0,,0,,,*4B
$PGRMZ,1289,F,2*08
$POV,A,-1.8761,1.4193,9.6846*39
$POV,G,-.061,-.012,-.247*38
$POV,E,-0.02,P,966.04,Q,0.00*31
$PFLAA,0,-20,29,-1,2,DDA6F0,0,,0,0.0,1,0,0,*7E
$PFLAA,0,-37,36,-8,2,DF289E,0,,0,0.1,1,0,0,*0B
$PFLAA,0,-130,60,-8,2,DDA6B9,0,,0,0.0,1,0,0,*47
$PFLAA,0,-13,38,-3,2,DDED1C,0,,0,0.0,1,0,0,*0E
$POV,A,-1.8656,1.3905,9.7013*35
$POV,G,-.050,-.025,-.246*3F
$POV,E,-0.06,P,966.05,Q,0.00*34
$GPRMC,115449.00,A,4834.29336,N,01155.97397,E,0.135,,200626,,,A*7E
$GPGGA,115449.00,4834.29336,N,01155.97397,E,1,10,0.85,496.4,M,46.1,M,,*55
$GPGSA,A,3,17,02,03,28,32,01,04,19,31,22,,,1.40,0.85,1.11*08
$PFLAU,4,1,1,1,0,,0,,,*4B
$PGRMZ,1292,F,2*02
$POV,A,-1.8706,1.4113,9.6849*3F
$POV,G,-.117,-.013,-.250*3F
$POV,E,-0.05,P,966.06,Q,0.00*34
$PFLAA,0,-13,38,-3,2,DDED1C,0,,0,0.0,1,0,0,*0E
$PFLAA,0,-19,28,-2,2,DDA6F0,0,,0,0.0,1,0,0,*76
$PFLAA,0,-130,61,-8,2,DDA6B9,0,,0,0.0,1,0,0,*46
$PFLAA,0,-37,36,-8,2,DF289E,0,,0,0.0,1,0,0,*0A
$POV,A,-1.8714,1.3942,9.6921*38
$POV,G,-.064,-.022,-.235*3B
$POV,E,-0.05,P,966.07,Q,0.00*35
$GPRMC,115450.00,A,4834.29340,N,01155.97399,E,0.438,,200626,,,A*71
$GPGGA,115450.00,4834.29340,N,01155.97399,E,1,10,0.85,496.4,M,46.1,M,,*52
$GPGSA,A,3,17,02,03,28,32,01,04,19,31,22,,,1.40,0.85,1.11*08
$PFLAU,4,1,1,1,0,,0,,,*4B
$PGRMZ,1286,F,2*07
$PFLAA,0,-20,28,-2,2,DDA6F0,0,,0,0.0,1,0,0,*7C
$PFLAA,0,-13,38,-3,2,DDED1C,0,,0,0.0,1,0,0,*0E
$POV,A,-1.8607,1.4174,9.7007*3D
$POV,G,-.602,-.027,-.271*38
$POV,E,-0.05,P,966.07,Q,0.00*35
$PFLAA,0,-130,60,-8,2,DDA6B9,0,,0,0.0,1,0,0,*47
$PFLAA,0,-37,37,-8,2,DF289E,0,,0,0.1,1,0,0,*0A
$POV,A,-1.8855,1.3304,9.7282*39
$POV,G,-3.558,-.006,-.623*07
$POV,E,-0.08,P,966.07,Q,0.00*38
$GPRMC,115451.00,A,4834.29341,N,01155.97403,E,0.128,,200626,,,A*71
$GPGGA,115451.00,4834.29341,N,01155.97403,E,1,11,0.85,496.3,M,46.1,M,,*50
$GPGSA,A,3,17,02,03,28,32,01,04,08,19,31,22,,1.40,0.85,1.11*00
$PFLAU,4,1,1,1,0,,0,,,*4B
$PGRMZ,1286,F,2*07
$PFLAA,0,-37,37,-8,2,DF289E,0,,0,0.0,1,0,0,*0B
$PFLAA,0,-130,61,-8,2,DDA6B9,0,,0,0.0,1,0,0,*46
$POV,A,-1.8711,.8029,9.7231*08
$POV,G,-4.415,-.015,-.815*01
$POV,E,-0.12,P,966.08,Q,0.00*3C
$PFLAA,0,-20,28,-2,2,DDA6F0,0,,0,0.0,1,0,0,*7C
$PFLAA,0,-13,38,-3,2,DDED1C,0,,0,0.0,1,0,0,*0E
$POV,A,-1.8775,.5552,9.7809*0F
$POV,G,-3.698,-.035,-.656*0A
$POV,E,-0.13,P,966.08,Q,0.00*3D
$GPRMC,115452.00,A,4834.29338,N,01155.97401,E,0.193,,200626,,,A*7E
$GPGGA,115452.00,4834.29338,N,01155.97401,E,1,11,0.81,496.4,M,46.1,M,,*5C
$GPGSA,A,3,17,02,03,28,32,01,04,08,19,31,22,,1.39,0.81,1.12*09
$PFLAU,4,1,1,1,0,,0,,,*4B
$PGRMZ,1286,F,2*07
$POV,A,-1.8818,.1602,9.7719*07
$POV,G,-3.206,-.023,-.645*0C
$POV,E,-0.13,P,966.08,Q,0.00*3D
$PFLAA,0,-37,37,-7,2,DF289E,0,,0,0.1,1,0,0,*05
$PFLAA,0,-129,61,-8,2,DDA6B9,0,,0,0.0,1,0,0,*4E
$PFLAA,0,-12,38,-3,2,DDED1C,0,,0,0.0,1,0,0,*0F
$PFLAA,0,-19,28,-2,2,DDA6F0,0,,0,0.0,1,0,0,*76
$POV,A,-1.8899,-.0415,9.7706*28
$POV,G,-1.438,-.025,-.453*06
$POV,E,-0.10,P,966.08,Q,0.00*3E
$GPRMC,115453.00,A,4834.29342,N,01155.97402,E,0.269,,200626,,,A*77
$GPGGA,115453.00,4834.29342,N,01155.97402,E,1,11,0.81,496.7,M,46.1,M,,*50
$GPGSA,A,3,17,02,03,28,32,01,04,08,19,31,22,,1.39,0.81,1.12*09
$PFLAU,4,1,1,1,0,,0,,,*4B
$PGRMZ,1286,F,2*07
$POV,A,-1.8834,.0088,9.7780*0C
$POV,G,.000,-.027,-.242*11
$POV,E,-0.06,P,966.08,Q,0.00*39
$PFLAA,0,-20,28,-2,2,DDA6F0,0,,0,0.0,1,0,0,*7C
$PFLAA,0,-130,61,-8,2,DDA6B9,0,,0,0.0,1,0,0,*46
$PFLAA,0,-13,38,-3,2,DDED1C,0,,0,0.0,1,0,0,*0E
$PFLAA,0,-38,37,-7,2,DF289E,0,,0,0.0,1,0,0,*0B
$POV,A,-1.8822,.0157,9.7774*03
$POV,G,.070,-.017,-.185*1D
$POV,E,-0.07,P,966.07,Q,0.00*37
$GPRMC,115454.00,A,4834.29345,N,01155.97394,E,0.331,,200626,,,A*73
$GPGGA,115454.00,4834.29345,N,01155.97394,E,1,11,0.75,496.9,M,46.1,M,,*5D
$GPGSA,A,3,17,02,03,28,32,01,04,08,19,31,22,,1.27,0.75,1.02*0C
$PFLAU,4,1,1,1,0,,0,,,*4B
$PGRMZ,1289,F,2*08
$PFLAA,0,-13,38,-4,2,DDED1C,0,,0,0.0,1,0,0,*09
$POV,A,-1.8883,.0553,9.7851*00
$POV,G,-.013,-.008,-.225*32
$POV,E,-0.06,P,966.07,Q,0.00*36
$PFLAA,0,-37,37,-8,2,DF289E,0,,0,0.0,1,0,0,*0B
$PFLAA,0,-19,28,-3,2,DDA6F0,0,,0,0.0,1,0,0,*77
$PFLAA,0,-129,62,-9,2,DDA6B9,0,,0,0.0,1,0,0,*4C
$POV,A,-1.8897,-.0045,9.7769*2E
$POV,G,-.313,-.010,-.257*3D
$POV,E,-0.05,P,966.07,Q,0.00*35
$GPRMC,115455.00,A,4834.29345,N,01155.97385,E,0.260,,200626,,,A*77
$GPGGA,115455.00,4834.29345,N,01155.97385,E,1,11,0.75,497.4,M,46.1,M,,*50
$GPGSA,A,3,17,02,03,28,32,01,04,08,19,31,22,,1.27,0.75,1.02*0C
$PFLAU,4,1,1,1,0,,0,,,*4B
$PGRMZ,1289,F,2*08
$POV,A,-1.8821,-.0011,9.7739*27
$POV,G,.029,-.037,-.214*18
$POV,E,-0.03,P,966.07,Q,0.00*33
$PFLAA,0,-20,28,-3,2,DDA6F0,0,,0,0.0,1,0,0,*7D
$PFLAA,0,-129,62,-9,2,DDA6B9,0,,0,0.0,1,0,0,*4C
$PFLAA,0,-13,38,-4,2,DDED1C,0,,0,0.0,1,0,0,*09
$PFLAA,0,-37,37,-8,2,DF289E,0,,0,0.1,1,0,0,*0A
$POV,A,-1.8827,.0412,9.7784*0D
$POV,G,.164,-.023,-.206*16
$POV,E,-0.01,P,966.07,Q,0.00*31
$GPRMC,115456.00,A,4834.29350,N,01155.97382,E,0.096,,200626,,,A*7C
$GPGGA,115456.00,4834.29350,N,01155.97382,E,1,11,0.75,497.7,M,46.1,M,,*53
$GPGSA,A,3,17,02,03,28,32,01,04,08,19,31,22,,1.27,0.75,1.02*0C
$PFLAU,4,1,1,1,0,,0,,,*4B
$PGRMZ,1289,F,2*08
$PFLAA,0,-13,38,-4,2,DDED1C,0,,0,0.0,1,0,0,*09
$POV,A,-1.8908,.0704,9.7835*00
$POV,G,-.204,-.020,-.242*3D
$POV,E,0.00,P,966.06,Q,0.00*1C
$PFLAA,0,-37,37,-8,2,DF289E,0,,0,0.0,1,0,0,*0B
$PFLAA,0,-129,61,-9,2,DDA6B9,0,,0,0.0,1,0,0,*4F
$PFLAA,0,-20,28,-3,2,DDA6F0,0,,0,0.0,1,0,0,*7D
$POV,A,-1.8899,.0048,9.7757*0D
$POV,G,-.441,-.006,-.269*37
$POV,E,-0.02,P,966.06,Q,0.00*33
$GPRMC,115457.00,A,4834.29351,N,01155.97382,E,0.147,,200626,,,A*71
$GPGGA,115457.00,4834.29351,N,01155.97382,E,1,11,0.81,497.6,M,46.1,M,,*59
$GPGSA,A,3,17,02,03,28,32,01,04,08,19,31,22,,1.39,0.81,1.12*09
$PFLAU,4,1,1,1,0,,0,,,*4B
$PGRMZ,1286,F,2*07
$PFLAA,0,-13,38,-4,2,DDED1C,0,,0,0.0,1,0,0,*09
$POV,A,-1.8867,-.0005,9.7752*2D
$POV,G,.025,-.011,-.244*15
$POV,E,-0.06,P,966.07,Q,0.00*36
$PFLAA,0,-20,28,-3,2,DDA6F0,0,,0,0.0,1,0,0,*7D
$PFLAA,0,-129,61,-9,2,DDA6B9,0,,0,0.0,1,0,0,*4F
$PFLAA,0,-37,37,-8,2,DF289E,0,,0,0.1,1,0,0,*0A
$POV,A,-1.8893,.0335,9.7798*0D
$POV,G,-.001,-.009,-.256*34
$POV,E,-0.05,P,966.08,Q,0.00*3A
$GPRMC,115458.00,A,4834.29352,N,01155.97382,E,0.101,,200626,,,A*7F
$GPGGA,115458.00,4834.29352,N,01155.97382,E,1,11,0.75,497.7,M,46.1,M,,*5F
$GPGSA,A,3,17,02,03,28,32,01,04,08,19,31,22,,1.27,0.75,1.02*0C
$PFLAU,4,1,1,1,0,,0,,,*4B
$PGRMZ,1286,F,2*07
$PFLAA,0,-129,62,-9,2,DDA6B9,0,,0,0.0,1,0,0,*4C
$POV,A,-1.8855,.0228,9.7812*07
$POV,G,-.167,.001,-.263*16
$POV,E,-0.07,P,966.08,Q,0.00*38
$PFLAA,0,-37,38,-8,2,DF289E,0,,0,0.1,1,0,0,*05
$PFLAA,0,-20,28,-3,2,DDA6F0,0,,0,0.0,1,0,0,*7D
$PFLAA,0,-13,38,-4,2,DDED1C,0,,0,0.0,1,0,0,*09
$POV,A,-1.8834,.0223,9.7760*01
$POV,G,-.113,-.004,-.237*3C
$POV,E,-0.07,P,966.09,Q,0.00*39
$GPRMC,115459.00,A,4834.29357,N,01155.97385,E,0.131,,200626,,,A*7F
$GPGGA,115459.00,4834.29357,N,01155.97385,E,1,11,0.85,497.7,M,46.1,M,,*53
$GPGSA,A,3,17,02,03,28,32,01,04,08,19,31,22,,1.40,0.85,1.11*00
$PFLAU,4,1,1,1,0,,0,,,*4B
$PGRMZ,1289,F,2*08
$POV,A,-1.8864,.0054,9.7840*0B
$POV,G,-.178,-.021,-.236*37
$POV,E,-0.07,P,966.09,Q,0.00*39
$PFLAA,0,-20,28,-3,2,DDA6F0,0,,0,0.0,1,0,0,*7D
$PFLAA,0,-129,61,-9,2,DDA6B9,0,,0,0.0,1,0,0,*4F
$PFLAA,0,-13,38,-5,2,DDED1C,0,,0,0.0,1,0,0,*08
$PFLAA,0,-37,37,-8,2,DF289E,0,,0,-0.1,1,0,0,*27
$POV,A,-1.8813,.0157,9.7778*0D
$POV,G,-.104,-.001,-.228*31
$POV,E,-0.07,P,966.09,Q,0.00*39
$GPRMC,115500.00,A,4834.29360,N,01155.97385,E,0.254,,200626,,,A*76
$GPGGA,115500.00,4834.29360,N,01155.97385,E,1,11,0.75,497.7,M,46.1,M,,*55
$GPGSA,A,3,17,02,03,28,32,01,04,08,19,31,22,,1.27,0.75,1.02*0C
$PFLAU,4,1,1,1,0,,0,,,*4B
$PGRMZ,1286,F,2*07
$POV,A,-1.8888,-.0026,9.7829*2E
$POV,G,-.181,-.018,-.236*3B
$POV,E,-0.07,P,966.09,Q,0.00*39
$PFLAA,0,-128,62,-9,2,DDA6B9,0,,0,0.0,1,0,0,*4D
$PFLAA,0,-13,38,-5,2,DDED1C,0,,0,0.0,1,0,0,*08
$PFLAA,0,-20,28,-3,2,DDA6F0,0,,0,0.0,1,0,0,*7D
$PFLAA,0,-37,37,-8,2,DF289E,0,,0,0.0,1,0,0,*0B
$POV,A,-1.8830,-.0199,9.7741*29
$POV,G,-.166,-.003,-.268*33
$POV,E,-0.07,P,966.09,Q,0.00*39
$GPRMC,115501.00,A,4834.29359,N,01155.97381,E,0.130,,200626,,,A*78
$GPGGA,115501.00,4834.29359,N,01155.97381,E,1,11,0.75,497.6,M,46.1,M,,*5B
$GPGSA,A,3,17,02,03,28,32,01,04,08,19,31,22,,1.27,0.75,1.02*0C
$PFLAU,4,1,1,1,0,,0,,,*4B
$PGRMZ,1286,F,2*07
$POV,A,-1.8897,.0181,9.7768*0B
$POV,G,-.008,-.024,-.234*36
$POV,E,-0.06,P,966.09,Q,0.00*38
$PFLAA,0,-20,28,-3,2,DDA6F0,0,,0,0.0,1,0,0,*7D
$PFLAA,0,-128,62,-9,2,DDA6B9,0,,0,0.0,1,0,0,*4D
$PFLAA,0,-13,38,-5,2,DDED1C,0,,0,0.0,1,0,0,*08
$POV,A,-1.8739,-.0395,9.7777*24
$POV,G,-.009,-.026,-.239*38
$POV,E,-0.06,P,966.10,Q,0.00*30
$PFLAA,0,-37,37,-8,2,DF289E,0,,0,0.1,1,0,0,*0A
$GPRMC,115502.00,A,4834.29361,N,01155.97379,E,0.062,,200626,,,A*71
$GPGGA,115502.00,4834.29361,N,01155.97379,E,1,11,0.75,497.6,M,46.1,M,,*54
$GPGSA,A,3,17,02,03,28,32,01,04,08,19,31,22,,1.27,0.75,1.02*0C
$PFLAU,4,1,1,1,0,,0,,,*4B
$PGRMZ,1286,F,2*07
$PFLAA,0,-38,37,-8,2,DF289E,0,,0,0.0,1,0,0,*04
$POV,A,-1.8912,.0671,9.7792*0A
$POV,G,-.094,-.006,-.202*36
$POV,E,-0.04,P,966.10,Q,0.00*32
$PFLAA,0,-21,28,-3,2,DDA6F0,0,,0,0.0,1,0,0,*7C
$PFLAA,0,-129,61,-9,2,DDA6B9,0,,0,0.0,1,0,0,*4F
$PFLAA,0,-14,38,-5,2,DDED1C,0,,0,0.0,1,0,0,*0F
$POV,A,-1.8984,-.0262,9.7783*2E
$POV,G,-.070,-.026,-.217*3A
$POV,E,-0.03,P,966.10,Q,0.00*35
$GPRMC,115503.00,A,4834.29361,N,01155.97380,E,0.281,,200626,,,A*79
$GPGGA,115503.00,4834.29361,N,01155.97380,E,1,11,0.75,497.6,M,46.1,M,,*53
$GPGSA,A,3,17,02,03,28,32,01,04,08,19,31,22,,1.27,0.75,1.02*0C
$PFLAU,4,1,1,1,0,,0,,,*4B
$PGRMZ,1286,F,2*07
$PFLAA,0,-37,37,-8,2,DF289E,0,,0,0.1,1,0,0,*0A
$POV,A,-1.8858,.0111,9.7758*02
$POV,G,-.120,-.007,-.250*3E
$POV,E,-0.02,P,966.11,Q,0.00*35
$PFLAA,0,-128,61,-9,2,DDA6B9,0,,0,0.0,1,0,0,*4E
$PFLAA,0,-13,38,-5,2,DDED1C,0,,0,0.0,1,0,0,*08
$PFLAA,0,-20,28,-3,2,DDA6F0,0,,0,0.0,1,0,0,*7D
$POV,A,-1.8842,-.0101,9.7782*22
$POV,G,-.189,-.009,-.275*34
$POV,E,0.00,P,966.10,Q,0.00*1B
$GPRMC,115504.00,A,4834.29359,N,01155.97375,E,0.312,,200626,,,A*74
$GPGGA,115504.00,4834.29359,N,01155.97375,E,1,11,0.75,497.5,M,46.1,M,,*56
$GPGSA,A,3,17,02,03,28,32,01,04,08,19,31,22,,1.27,0.75,1.02*0C
$PFLAU,4,1,1,1,0,,0,,,*4B
$PGRMZ,1289,F,2*08
$POV,A,-1.8840,-.0066,9.7811*25
$POV,G,-.088,-.002,-.231*3F
$POV,E,0.01,P,966.09,Q,0.00*12
$PFLAA,0,-37,37,-8,2,DF289E,0,,0,0.0,1,0,0,*0B
$PFLAA,0,-128,62,-9,2,DDA6B9,0,,0,0.0,1,0,0,*4D
$PFLAA,0,-13,39,-5,2,DDED1C,0,,0,0.0,1,0,0,*09
$PFLAA,0,-20,29,-3,2,DDA6F0,0,,0,0.0,1,0,0,*7C
$POV,A,-1.8836,.0047,9.7807*0D
$POV,G,.060,-.017,-.217*14
$POV,E,0.01,P,966.07,Q,0.00*1C
$GPRMC,115505.00,A,4834.29362,N,01155.97371,E,0.102,,200626,,,A*7A
$GPGGA,115505.00,4834.29362,N,01155.97371,E,1,11,0.75,497.4,M,46.1,M,,*5A
$GPGSA,A,3,17,02,03,28,32,01,04,08,19,31,22,,1.27,0.75,1.02*0C
$PFLAU,4,1,1,1,0,,0,,,*4B
$PGRMZ,1286,F,2*07
$PFLAA,0,-38,38,-8,2,DF289E,0,,0,0.0,1,0,0,*0B
$POV,A,-1.8785,.0174,9.7839*06
$POV,G,-.191,-.023,-.248*3B
$POV,E,0.00,P,966.06,Q,0.00*1C
$PFLAA,0,-14,38,-5,2,DDED1C,0,,0,0.0,1,0,0,*0F
$PFLAA,0,-128,62,-9,2,DDA6B9,0,,0,0.0,1,0,0,*4D
$PFLAA,0,-20,28,-3,2,DDA6F0,0,,0,0.0,1,0,0,*7D
$POV,A,-1.8926,-.0134,9.7735*2B
$POV,G,-.113,-.013,-.231*3C
$POV,E,0.01,P,966.07,Q,0.00*1C
$GPRMC,115506.00,A,4834.29370,N,01155.97374,E,0.221,,200626,,,A*7D
$GPGGA,115506.00,4834.29370,N,01155.97374,E,1,11,0.75,497.4,M,46.1,M,,*5F
$GPGSA,A,3,17,02,03,28,32,01,04,08,19,31,22,,1.27,0.75,1.02*0C
$PFLAU,4,1,1,1,0,,0,,,*4B
$PGRMZ,1286,F,2*07
$POV,A,-1.8855,.0134,9.7804*0E
$POV,G,.077,-.010,-.213*11
$POV,E,0.01,P,966.08,Q,0.00*13
$PFLAA,0,-128,61,-9,2,DDA6B9,0,,0,0.0,1,0,0,*4E
$PFLAA,0,-38,38,-8,2,DF289E,0,,0,0.0,1,0,0,*0B
$PFLAA,0,-20,29,-3,2,DDA6F0,0,,0,0.0,1,0,0,*7C
$PFLAA,0,-14,38,-5,2,DDED1C,0,,0,0.0,1,0,0,*0F
$POV,A,-1.8846,.0170,9.7783*0C
$POV,G,-.067,-.026,-.228*30
$POV,E,0.02,P,966.08,Q,0.00*10
$GPRMC,115507.00,A,4834.29373,N,01155.97382,E,0.140,,200626,,,A*72
$GPGGA,115507.00,4834.29373,N,01155.97382,E,1,11,0.75,497.3,M,46.1,M,,*53
$GPGSA,A,3,17,02,03,28,32,01,04,08,19,31,22,,1.27,0.75,1.02*0C
$PFLAU,4,1,1,1,0,,0,,,*4B
$PGRMZ,1289,F,2*08
$POV,A,-1.8874,.0225,9.7884*06
$POV,G,.052,-.019,-.203*1E
$POV,E,0.02,P,966.08,Q,0.00*10
$POV,V,13.32*32
$PFLAA,0,-14,38,-5,2,DDED1C,0,,0,0.0,1,0,0,*0F
$PFLAA,0,-128,61,-9,2,DDA6B9,0,,0,0.0,1,0,0,*4E
$PFLAA,0,-20,29,-3,2,DDA6F0,0,,0,0.0,1,0,0,*7C
$POV,A,-1.8848,.0336,9.7678*07
$POV,G,-.074,-.006,-.238*31
$POV,E,0.04,P,966.07,Q,0.00*19
$GPRMC,115508.00,A,4834.29375,N,01155.97386,E,0.145,,200626,,,A*7A
$GPGGA,115508.00,4834.29375,N,01155.97386,E,1,11,0.75,497.2,M,46.1,M,,*5F
$GPGSA,A,3,17,02,03,28,32,01,04,08,19,31,22,,1.27,0.75,1.02*0C
$PFLAA,0,-38,37,-8,2,DF289E,0,,0,0.0,1,0,0,*04
$PFLAU,3,1,1,1,0,,0,,,*4C
$PGRMZ,1286,F,2*07
$PFLAA,0,-38,38,-8,2,DF289E,0,,0,0.0,1,0,0,*0B
$POV,A,-1.8867,.0222,9.7800*0F
$POV,G,-.229,-.015,-.254*33
$POV,E,0.05,P,966.06,Q,0.00*19
$PFLAA,0,-127,61,-8,2,DDA6B9,0,,0,0.0,1,0,0,*40
$PFLAA,0,-20,29,-3,2,DDA6F0,0,,0,0.0,1,0,0,*7C
$PFLAA,0,-14,38,-5,2,DDED1C,0,,0,0.0,1,0,0,*0F
$POV,A,-1.8891,.0162,9.7822*01
$POV,G,-.156,-.038,-.247*35
$POV,E,0.07,P,966.06,Q,0.00*1B
$GPRMC,115509.00,A,4834.29375,N,01155.97385,E,0.156,,200626,,,A*7A
$GPGGA,115509.00,4834.29375,N,01155.97385,E,1,11,0.75,497.0,M,46.1,M,,*5F
$GPGSA,A,3,17,02,03,28,32,01,04,08,19,31,22,,1.27,0.75,1.02*0C
$PFLAU,4,1,1,1,0,,0,,,*4B
$PGRMZ,1286,F,2*07
$POV,A,-1.8920,.0087,9.7774*0C
$POV,G,-.149,-.007,-.226*30
$POV,E,0.07,P,966.06,Q,0.00*1B
$PFLAA,0,-128,62,-9,2,DDA6B9,0,,0,0.0,1,0,0,*4D
$PFLAA,0,-14,38,-4,2,DDED1C,0,,0,0.0,1,0,0,*0E
$PFLAA,0,-20,29,-3,2,DDA6F0,0,,0,0.0,1,0,0,*7C
$PFLAA,0,-38,38,-8,2,DF289E,0,,0,0.1,1,0,0,*0A
$POV,A,-1.8859,.0209,9.7894*06
$POV,G,-.123,-.012,-.236*39
$POV,E,0.06,P,966.06,Q,0.00*1A
$GPRMC,115510.00,A,4834.29379,N,01155.97380,E,0.098,,200626,,,A*78
$GPGGA,115510.00,4834.29379,N,01155.97380,E,1,11,0.75,497.0,M,46.1,M,,*5E
$GPGSA,A,3,17,02,03,28,32,01,04,08,19,31,22,,1.27,0.75,1.02*0C
$PFLAU,4,1,1,1,0,,0,,,*4B
$PGRMZ,1289,F,2*08
$POV,A,-1.8829,-.0026,9.7726*25
$PFLAA,0,-127,62,-8,2,DDA6B9,0,,0,0.0,1,0,0,*43
$POV,G,-.157,-.011,-.229*37
$POV,E,0.04,P,966.06,Q,0.00*18
$PFLAA,0,-38,38,-7,2,DF289E,0,,0,0.0,1,0,0,*04
$PFLAA,0,-14,38,-4,2,DDED1C,0,,0,0.0,1,0,0,*0E
$PFLAA,0,-20,29,-3,2,DDA6F0,0,,0,0.0,1,0,0,*7C
$POV,A,-1.8830,.0048,9.7782*06
$POV,G,-.071,-.005,-.231*3E
$POV,E,0.02,P,966.06,Q,0.00*1E
$GPRMC,115511.00,A,4834.29381,N,01155.97380,E,0.127,,200626,,,A*7B
$GPGGA,115511.00,4834.29381,N,01155.97380,E,1,11,0.75,496.9,M,46.1,M,,*50
$GPGSA,A,3,17,02,03,28,32,01,04,08,19,31,22,,1.27,0.75,1.02*0C
$PFLAU,4,1,1,1,0,,0,,,*4B
$PGRMZ,1286,F,2*07
$PFLAA,0,-14,38,-3,2,DDED1C,0,,0,0.0,1,0,0,*09
$POV,A,-1.8834,.0059,9.7817*01
$POV,G,-.013,-.010,-.219*34
$POV,E,0.01,P,966.06,Q,0.00*1D
$PFLAA,0,-20,29,-2,2,DDA6F0,0,,0,0.0,1,0,0,*7D
$PFLAA,0,-128,61,-7,2,DDA6B9,0,,0,0.0,1,0,0,*40
$PFLAA,0,-38,38,-6,2,DF289E,0,,0,0.0,1,0,0,*05
$POV,A,-1.8829,.0195,9.7796*0A
$POV,G,-.051,-.007,-.224*3A
$POV,E,0.02,P,966.06,Q,0.00*1E
$GPRMC,115512.00,A,4834.29385,N,01155.97383,E,0.132,,200626,,,A*7B
$GPGGA,115512.00,4834.29385,N,01155.97383,E,1,11,0.75,496.9,M,46.1,M,,*54
$GPGSA,A,3,17,02,03,28,32,01,04,08,19,31,22,,1.27,0.75,1.02*0C
$PFLAU,4,1,1,1,0,,0,,,*4B
$PGRMZ,1286,F,2*07
$PFLAA,0,-39,37,-6,2,DF289E,0,,0,0.1,1,0,0,*0A
$POV,A,-1.8878,.0094,9.7783*0A
$POV,G,-.129,-.007,-.246*30
$POV,E,0.01,P,966.06,Q,0.00*1D
$PFLAA,0,-14,38,-3,2,DDED1C,0,,0,0.0,1,0,0,*09
$PFLAA,0,-128,61,-7,2,DDA6B9,0,,0,0.0,1,0,0,*40
$PFLAA,0,-20,29,-2,2,DDA6F0,0,,0,0.0,1,0,0,*7D
$POV,A,-1.8855,.0104,9.7769*09
$POV,G,-.079,-.026,-.229*3E
$POV,E,0.01,P,966.06,Q,0.00*1D
$GPRMC,115513.00,A,4834.29388,N,01155.97386,E,0.094,,200626,,,A*7F
$GPGGA,115513.00,4834.29388,N,01155.97386,E,1,11,0.75,496.8,M,46.1,M,,*5C
$GPGSA,A,3,17,02,03,28,32,01,04,08,19,31,22,,1.27,0.75,1.02*0C
$PFLAU,4,1,1,1,0,,0,,,*4B
$PGRMZ,1289,F,2*08
$POV,A,-1.8836,.0147,9.7806*0D
$POV,G,-.031,-.020,-.213*3D
$POV,E,0.02,P,966.06,Q,0.00*1E
$PFLAA,0,-14,38,-3,2,DDED1C,0,,0,0.0,1,0,0,*09
$PFLAA,0,-20,29,-2,2,DDA6F0,0,,0,0.0,1,0,0,*7D
$POV,A,-1.8839,.0175,9.7816*02
$POV,G,-.056,-.014,-.219*31
$POV,E,0.03,P,966.06,Q,0.00*1F
$PFLAA,0,-38,37,-6,2,DF289E,0,,0,-0.1,1,0,0,*26
$PFLAA,0,-127,61,-7,2,DDA6B9,0,,0,0.0,1,0,0,*4F
$GPRMC,115514.00,A,4834.29388,N,01155.97386,E,0.103,,200626,,,A*77
$GPGGA,115514.00,4834.29388,N,01155.97386,E,1,11,0.75,496.7,M,46.1,M,,*54
$GPGSA,A,3,17,02,03,28,32,01,04,08,19,31,22,,1.27,0.75,1.02*0C
$PFLAU,4,1,1,1,0,,0,,,*4B
$PGRMZ,1286,F,2*07
$PFLAA,0,-38,37,-6,2,DF289E,0,,0,0.1,1,0,0,*0B
$PFLAA,0,-14,38,-3,2,DDED1C,0,,0,0.0,1,0,0,*09
$PFLAA,0,-128,62,-8,2,DDA6B9,0,,0,0.0,1,0,0,*4C
$POV,A,-1.8842,.0206,9.7785*0C
$POV,G,-.103,-.014,-.232*39
$POV,E,0.03,P,966.05,Q,0.00*1C
$PFLAA,0,-20,29,-2,2,DDA6F0,0,,0,0.0,1,0,0,*7D
$POV,A,-1.8861,.0146,9.7766*07
$POV,G,-.093,-.013,-.230*34
$POV,E,0.06,P,966.05,Q,0.00*19
$GPRMC,115515.00,A,4834.29388,N,01155.97381,E,0.104,,200626,,,A*76
$GPGGA,115515.00,4834.29388,N,01155.97381,E,1,11,0.75,496.7,M,46.1,M,,*52
$GPGSA,A,3,17,02,03,28,32,01,04,08,19,31,22,,1.27,0.75,1.02*0C
$PFLAU,4,1,1,1,0,,0,,,*4B
$PGRMZ,1286,F,2*07
$POV,A,-1.8854,.0278,9.7802*02
$POV,G,-.075,-.021,-.232*3F
$POV,E,0.06,P,966.04,Q,0.00*18
$PFLAA,0,-129,62,-8,2,DDA6B9,0,,0,0.0,1,0,0,*4D
$PFLAA,0,-38,37,-6,2,DF289E,0,,0,0.1,1,0,0,*0B
$PFLAA,0,-14,38,-3,2,DDED1C,0,,0,0.0,1,0,0,*09
$PFLAA,0,-20,29,-2,2,DDA6F0,0,,0,0.0,1,0,0,*7D
$POV,A,-1.8826,.0207,9.7789*03
$POV,G,-.132,-.006,-.231*3B
$POV,E,0.06,P,966.05,Q,0.00*19
$GPRMC,115516.00,A,4834.29388,N,01155.97379,E,0.054,,200626,,,A*76
$GPGGA,115516.00,4834.29388,N,01155.97379,E,1,11,0.75,496.8,M,46.1,M,,*59
$GPGSA,A,3,17,02,03,28,32,01,04,08,19,31,22,,1.27,0.75,1.02*0C
$PFLAU,4,1,1,1,0,,0,,,*4B
$PGRMZ,1289,F,2*08
$PFLAA,0,-129,63,-8,2,DDA6B9,0,,0,0.0,1,0,0,*4C
$POV,A,-1.8853,.0211,9.7823*09
$POV,G,-.107,-.031,-.225*3C
$POV,E,0.08,P,966.04,Q,0.00*16
$PFLAA,0,-38,37,-6,2,DF289E,0,,0,0.0,1,0,0,*0A
$PFLAA,0,-20,28,-2,2,DDA6F0,0,,0,0.0,1,0,0,*7C
$POV,A,-1.8813,.0151,9.7807*0C
$POV,G,-.070,-.018,-.226*35
$POV,E,0.07,P,966.04,Q,0.00*19
$GPRMC,115517.00,A,4834.29387,N,01155.97378,E,0.084,,200626,,,A*74
$GPGGA,115517.00,4834.29387,N,01155.97378,E,1,11,0.75,496.7,M,46.1,M,,*59
$PFLAA,0,-14,38,-3,2,DDED1C,0,,0,0.0,1,0,0,*09
$GPGSA,A,3,17,02,03,28,32,01,04,08,19,31,22,,1.27,0.75,1.02*0C
$PFLAU,4,1,1,1,0,,0,,,*4B
$PGRMZ,1289,F,2*08
$PFLAA,0,-130,63,-8,2,DDA6B9,0,,0,0.0,1,0,0,*44
$PFLAA,0,-14,38,-3,2,DDED1C,0,,0,0.1,1,0,0,*08
$POV,A,-1.8841,.0210,9.7789*04
$POV,G,-.017,-.014,-.227*39
$POV,E,0.06,P,966.04,Q,0.00*18
$PFLAA,0,-38,37,-6,2,DF289E,0,,0,0.1,1,0,0,*0B
$PFLAA,0,-20,28,-2,2,DDA6F0,0,,0,0.0,1,0,0,*7C
$POV,A,-1.8851,.0294,9.7768*06
$POV,G,.015,-.017,-.212*13
$POV,E,0.06,P,966.04,Q,0.00*18
$GPRMC,115518.00,A,4834.29383,N,01155.97376,E,0.142,,200626,,,A*7A
$GPGGA,115518.00,4834.29383,N,01155.97376,E,1,11,0.75,496.5,M,46.1,M,,*5E
$GPGSA,A,3,17,02,03,28,32,01,04,08,19,31,22,,1.27,0.75,1.02*0C
$PFLAU,4,1,1,1,0,,0,,,*4B
$PGRMZ,1286,F,2*07
$PFLAA,0,-130,63,-9,2,DDA6B9,0,,0,0.0,1,0,0,*45
$POV,A,-1.8870,.0377,9.7794*0A
$POV,G,-.123,-.017,-.229*32
$POV,E,0.06,P,966.04,Q,0.00*18
$PFLAA,0,-38,37,-6,2,DF289E,0,,0,0.1,1,0,0,*0B
$PFLAA,0,-20,29,-2,2,DDA6F0,0,,0,0.0,1,0,0,*7D
$PFLAA,0,-14,38,-3,2,DDED1C,0,,0,0.0,1,0,0,*09
$POV,A,-1.8971,.0422,9.7763*05
$POV,G,-.186,-.018,-.237*3D
$POV,E,0.03,P,966.04,Q,0.00*1D
$GPRMC,115519.00,A,4834.29382,N,01155.97373,E,0.085,,200626,,,A*75
$GPGGA,115519.00,4834.29382,N,01155.97373,E,1,11,0.75,496.4,M,46.1,M,,*5A
$GPGSA,A,3,17,02,03,28,32,01,04,08,19,31,22,,1.27,0.75,1.02*0C
$PFLAU,4,1,1,1,0,,0,,,*4B
$PGRMZ,1289,F,2*08
$PFLAA,0,-130,63,-9,2,DDA6B9,0,,0,0.0,1,0,0,*45
$POV,A,-1.9478,.0164,9.7675*01
$POV,G,-.176,-.018,-.251*32
$POV,E,0.02,P,966.04,Q,0.00*1C
$PFLAA,0,-20,29,-2,2,DDA6F0,0,,0,0.0,1,0,0,*7D
$PFLAA,0,-14,38,-3,2,DDED1C,0,,0,0.0,1,0,0,*09
$POV,A,-2.0638,.0230,9.7586*00
$POV,G,-.210,-.074,-.288*3F
$POV,E,0.00,P,966.04,Q,0.00*1E
$GPRMC,115520.00,A,4834.29378,N,01155.97373,E,0.378,,200626,,,A*7B
$GPGGA,115520.00,4834.29378,N,01155.97373,E,1,11,0.75,496.6,M,46.1,M,,*57
$GPGSA,A,3,17,02,03,28,32,01,04,08,19,31,22,,1.27,0.75,1.02*0C
$PFLAA,0,-38,37,-5,2,DF289E,0,,0,0.0,1,0,0,*09
$PFLAU,4,1,1,1,0,,0,,,*4B
$PGRMZ,1289,F,2*08
$POV,A,-2.2438,-.0084,9.7497*21
$POV,G,-.302,.024,-.233*15
$POV,E,0.00,P,966.04,Q,0.00*1E
$PFLAA,0,-20,28,-2,2,DDA6F0,0,,0,0.0,1,0,0,*7C
$PFLAA,0,-13,38,-3,2,DDED1C,0,,0,0.0,1,0,0,*0E
$PFLAA,0,-37,37,-5,2,DF289E,0,,0,0.1,1,0,0,*07
$PFLAA,0,-130,63,-9,2,DDA6B9,0,,0,0.0,1,0,0,*45
$POV,A,-2.5906,.0093,9.6434*05
$POV,G,-.047,.006,-.355*16
$POV,E,0.03,P,966.04,Q,0.00*1D
$GPRMC,115521.00,A,4834.29353,N,01155.97374,E,1.512,186.48,200626,,,A*62
$GPGGA,115521.00,4834.29353,N,01155.97374,E,1,11,0.75,496.7,M,46.1,M,,*59
$GPGSA,A,3,17,02,03,28,32,01,04,08,19,31,22,,1.27,0.75,1.02*0C
$PFLAU,4,1,1,1,0,,0,,,*4B
$PGRMZ,1289,F,2*08
$PFLAA,0,-36,37,-5,2,DF289E,0,,0,0.1,1,0,0,*06
$POV,A,-2.3050,-.0246,9.8247*22
$POV,G,-.030,-.632,-.473*39
$POV,E,0.08,P,966.03,Q,0.00*11
$PFLAA,0,-12,38,-3,2,DDED1C,0,,0,0.0,1,0,0,*0F
$PFLAA,0,-128,63,-9,2,DDA6B9,0,,0,0.0,1,0,0,*4C
$PFLAA,0,-18,28,-2,2,DDA6F0,0,,0,0.0,1,0,0,*77
$POV,A,-2.0212,.0010,9.5590*09
$POV,G,-.341,-.195,-.428*38
$POV,E,0.09,P,966.04,Q,0.00*17
$GPRMC,115522.00,A,4834.29308,N,01155.97369,E,1.723,185.96,200626,,,A*63
$GPGGA,115522.00,4834.29308,N,01155.97369,E,1,11,0.75,496.8,M,46.1,M,,*57
$GPGSA,A,3,17,02,03,28,32,01,04,08,19,31,22,,1.27,0.75,1.02*0C
$PFLAU,4,1,1,1,0,,0,,,*4B
$PGRMZ,1289,F,2*08
$POV,A,-3.9564,-.0015,9.5877*2B
$POV,G,-.237,-1.151,-.581*03
$POV,E,0.14,P,966.02,Q,0.00*1D
$PFLAA,0,-127,64,-10,2,DDA6B9,0,,0,0.0,1,0,0,*7C
$PFLAA,0,-11,38,-3,2,DDED1C,0,,0,0.0,1,0,0,*0C
$PFLAA,0,-17,29,-2,2,DDA6F0,0,,0,0.0,1,0,0,*79
$PFLAA,0,-35,37,-5,2,DF289E,0,,0,0.0,1,0,0,*04
$POV,A,-7.4161,.0631,9.0490*0E
$POV,G,-.329,-.545,-1.187*0E
$POV,E,0.33,P,965.96,Q,0.00*16
$GPRMC,115523.00,A,4834.29151,N,01155.97358,E,9.496,182.47,200626,,,A*60
$GPGGA,115523.00,4834.29151,N,01155.97358,E,1,11,0.75,496.9,M,46.1,M,,*5B
$GPGSA,A,3,17,02,03,28,32,01,04,08,19,31,22,,1.27,0.75,1.02*0C
$PFLAU,4,1,1,1,0,,0,,,*4B
$PGRMZ,1292,F,2*02
$POV,A,-11.3753,-.0682,8.5191*1C
$POV,G,-1.209,-.193,-.893*0E
$POV,E,0.88,P,965.89,Q,0.00*18
$PFLAA,0,-116,64,-10,2,DDA6B9,0,,0,0.0,1,0,0,*7E
$PFLAA,0,0,38,-3,2,DDED1C,0,,0,0.0,1,0,0,*11
$PFLAA,0,-24,37,-5,2,DF289E,0,,0,0.1,1,0,0,*05
$PFLAA,0,-7,29,-2,2,DDA6F0,0,,0,0.0,1,0,0,*48
$POV,A,-11.9368,-.4128,8.0125*13
$POV,G,-1.137,-.615,-.097*05
$POV,E,2.02,P,965.89,Q,0.00*18
$GPRMC,115524.00,A,4834.28621,N,01155.97319,E,28.810,183.05,200626,,,A*55
$GPGGA,115524.00,4834.28621,N,01155.97319,E,1,11,0.75,496.9,M,46.1,M,,*58
$GPGSA,A,3,17,02,03,28,32,01,04,08,19,31,22,,1.27,0.75,1.02*0C
$PFLAU,4,1,1,1,0,,0,,,*4B
$PGRMZ,1289,F,2*08
$PFLAA,0,30,40,-3,2,DDED1C,0,,0,0.0,1,0,0,*2D
$POV,A,-8.5594,-.2332,9.9957*28
$POV,G,.823,-1.468,-.862*2E
$POV,E,3.48,P,965.99,Q,37.36*27
$PFLAA,0,-87,66,-10,2,DDA6B9,0,,0,0.0,1,0,0,*45
$PFLAA,0,23,31,-2,2,DDA6F0,0,,0,0.0,1,0,0,*5A
$PFLAA,0,6,39,-5,2,DF289E,0,,0,0.0,1,0,0,*17
$POV,A,-6.0253,-.1236,8.9205*24
$POV,G,1.610,-1.285,-2.053*2C
$POV,E,5.38,P,966.10,Q,102.24*10
$GPRMC,115525.00,A,4834.27667,N,01155.97243,E,40.305,183.32,200626,,,A*52
$GPGGA,115525.00,4834.27667,N,01155.97243,E,1,10,0.81,497.5,M,46.1,M,,*5D
$GPGSA,A,3,17,02,03,28,32,01,04,08,19,31,,,1.39,0.81,1.12*09
$PFLAU,4,1,1,1,0,,0,,,*4B
$PGRMZ,1279,F,2*07
$PFLAA,0,52,33,-4,2,DDA6F0,0,,0,0.0,1,0,0,*58
$POV,A,-6.0243,.1181,9.6109*06
$POV,G,.290,1.936,-.247*0A
$POV,E,7.05,P,966.17,Q,161.31*1A
$PFLAA,0,-57,67,-12,2,DDA6B9,0,,0,0.0,1,0,0,*4B
$PFLAA,0,59,42,-5,2,DDED1C,0,,0,0.0,1,0,0,*26
$POV,A,-7.0119,-.5170,9.2077*20
$POV,G,-.211,1.961,1.617*31
$POV,E,8.28,P,966.23,Q,213.13*1B
$PFLAA,0,35,41,-7,2,DF289E,0,,0,0.1,1,0,0,*2B
$GPRMC,115526.00,A,4834.26408,N,01155.97150,E,50.360,182.75,200626,,,A*5A
$GPGGA,115526.00,4834.26408,N,01155.97150,E,1,10,0.81,498.1,M,46.1,M,,*5E
$GPGSA,A,3,17,02,03,28,32,01,04,08,19,31,,,1.39,0.81,1.12*09
$PFLAU,4,1,1,1,0,,0,,,*4B
$PGRMZ,1269,F,2*06
$PFLAL,115526011*4F
$PFLAJ,A,1,0,*11
$POV,A,-6.7850,-.4930,12.1727*14
$POV,G,.709,6.608,2.226*12
$POV,E,9.31,P,966.32,Q,287.08*15
$PFLAA,0,86,34,-6,2,DDA6F0,0,,0,0.0,1,0,0,*54
$PFLAA,0,69,42,-8,2,DF289E,0,,0,0.1,1,0,0,*2E
$PFLAA,0,-23,69,-14,2,DDA6B9,0,,0,0.0,1,0,0,*40
$PFLAA,0,93,43,-7,2,DDED1C,0,,0,0.0,1,0,0,*23
$POV,A,-6.3055,-.2335,15.2933*1B
$POV,G,1.667,10.594,.581*23
$POV,E,10.47,P,966.36,Q,381.95*2B
$GPRMC,115527.00,A,4834.24929,N,01155.97019,E,56.184,184.05,200626,,,A*54
$GPGGA,115527.00,4834.24929,N,01155.97019,E,1,10,0.81,501.0,M,46.1,M,,*5F
$GPGSA,A,3,17,02,03,28,32,01,04,08,19,31,,,1.39,0.81,1.12*09
$PFLAU,4,1,2,1,0,-150,0,-8,84,DF289E*3C
$PGRMZ,1276,F,2*08
$PFLAL,11552707FRW 7.43*04
$PFLAL,115527 STEALTH OFF*62
$PFLAL,115527 NOTRACK OFF*7F
$PFLAL,115527ID 1 3EDA73*35
$PFLAL,115527OB*73
$PFLAL,11552707OBSTEXP *1E
$PFLAL,11552707DEVNO FLAPFC11E-005548*75
$PFLAL,11552707BUILD cf1d2dd40*69
$PFLAL,11552707RANGE 65535*36
$PFLAL,11552707ACFT 1*78
$PFLAL,11552707THRE 255*60
$PFLAL,11552707CFLAGS 00*45
$PFLAL,11552707RFTX 1*70
$PFLAL,11552707MISC 00*4D
$PFLAL,11552707LOGINT 4*7A
$PFLAL,11552707NMEAOUT1 91*29
$PFLAL,11552707BAUD1 4*4E
$PFLAL,11552707NMEAOUT2 72*27
$PFLAL,11552707BAUD2 0*49
$PFLAL,11552707VRANGE 500*65
$PFLAL,11552707MODESALT 1*61
$PFLAJ,A,1,1,*10
$PFLAA,0,126,46,-19,2,DDED1C,0,,0,0.0,1,0,0,*26
$PFLAA,0,102,45,-20,2,DF289E,0,,0,0.0,1,0,0,*2E
$POV,A,-5.8507,-.1363,14.4184*12
$POV,G,-3.725,3.836,-3.311*2D
$PFLAA,0,10,72,-27,2,DDA6B9,0,,0,0.0,1,0,0,*67
$POV,E,12.30,P,966.03,Q,503.89*2E
$PFLAA,0,119,37,-18,2,DDA6F0,0,,0,0.0,1,0,0,*5F
$POV,A,-6.3043,.1585,12.0791*3C
$POV,G,-2.044,13.540,-.262*27
$POV,E,14.04,P,965.51,Q,558.32*25
$GPRMC,115528.00,A,4834.23345,N,01155.96864,E,58.012,183.63,200626,,,A*58
$GPGGA,115528.00,4834.23345,N,01155.96864,E,1,11,0.81,508.7,M,46.1,M,,*5B
$GPGSA,A,3,17,02,03,28,32,01,04,08,19,31,22,,1.39,0.81,1.12*09
$PFLAU,4,1,2,1,0,-103,0,-27,78,DDA6B9*7C
$PGRMZ,1289,F,2*08
$PFLAA,0,42,73,-42,2,DDA6B9,0,,0,0.0,1,0,0,*62
$POV,A,-6.9183,.4560,12.7840*31
$POV,G,-2.302,-1.327,-.010*38
$POV,E,15.09,P,964.98,Q,585.13*2E
$PFLAA,0,158,48,-34,2,DDED1C,0,,0,0.0,1,0,0,*2E
$PFLAA,0,134,47,-35,2,DF289E,0,,0,0.1,1,0,0,*2C
$PFLAA,0,151,39,-33,2,DDA6F0,0,,0,0.0,1,0,0,*54
$PFLAL,115528GPS 10 39*3E
$POV,A,-6.1297,.4920,9.6106*07
$POV,G,-1.021,2.371,1.474*0E
$POV,E,15.68,P,964.23,Q,649.54*29
$GPRMC,115529.00,A,4834.21718,N,01155.96748,E,59.609,181.90,200626,,,A*55
$GPGGA,115529.00,4834.21718,N,01155.96748,E,1,11,0.75,520.3,M,46.1,M,,*50
$GPGSA,A,3,17,02,03,28,32,01,04,08,19,31,22,,1.27,0.75,1.02*0C
$PFLAU,4,1,2,1,0,-122,0,-42,88,DDA6B9*73
$PGRMZ,1325,F,2*0F
$PFLAA,0,74,73,-60,2,DDA6B9,0,,0,0.0,1,0,0,*67
$PFLAA,0,182,39,-51,2,DDA6F0,0,,0,0.0,1,0,0,*5E
$POV,A,-5.9859,.5661,11.7601*37
$POV,G,-1.800,10.005,1.008*39
$POV,E,14.95,P,963.53,Q,662.79*2C
$PFLAA,0,165,47,-52,2,DF289E,0,,0,0.0,1,0,0,*28
$PFLAA,0,190,47,-52,2,DDED1C,0,,0,0.1,1,0,0,*24
$POV,A,-7.1376,.3283,13.2281*3E
$POV,G,.064,6.391,-1.193*38
$POV,E,14.19,P,963.01,Q,623.80*2C
$GPRMC,115530.00,A,4834.20097,N,01155.96723,E,57.340,179.50,200626,,,A*5C
$GPGGA,115530.00,4834.20097,N,01155.96723,E,1,11,0.75,535.3,M,46.1,M,,*50
$GPGSA,A,3,17,02,03,28,32,01,04,08,19,31,22,,1.27,0.75,1.02*0C
$PFLAU,4,1,2,1,0,-134,0,-60,98,DDA6B9*75
$PGRMZ,1374,F,2*0B
$PFLAA,0,217,45,-76,2,DDED1C,0,,0,0.0,1,0,0,*2D
$POV,A,-7.7960,.3711,11.4229*3D
$POV,G,-1.030,3.760,-3.718*2D
$POV,E,13.67,P,962.30,Q,610.93*23
$PFLAA,0,193,45,-76,2,DF289E,0,,0,0.1,1,0,0,*24
$PFLAA,0,102,70,-84,2,DDA6B9,0,,0,0.0,1,0,0,*5E
$PFLAA,0,210,36,-75,2,DDA6F0,0,,0,0.0,1,0,0,*5F
$POV,A,-6.8469,.4656,9.3318*0F
$POV,G,-1.602,3.915,-3.255*2A
$POV,E,12.94,P,961.25,Q,618.25*2C
$GPRMC,115531.00,A,4834.18517,N,01155.96801,E,56.760,176.71,200626,,,A*5F
$GPGGA,115531.00,4834.18517,N,01155.96801,E,1,11,0.75,553.7,M,46.1,M,,*5C
$GPGSA,A,3,17,02,03,28,32,01,04,08,19,31,22,,1.27,0.75,1.02*0C
$PFLAU,4,1,2,1,0,-141,0,-84,127,DDA6B9*48
$PGRMZ,1433,F,2*0F
$PFLAA,0,130,66,-107,2,DDA6B9,0,,0,0.0,1,0,0,*62
$POV,A,-6.4507,.5510,8.5619*09
$POV,G,-.924,6.676,-.850*23
$POV,E,13.37,P,960.07,Q,638.62*24
$PFLAA,0,246,41,-100,2,DDED1C,0,,0,0.0,1,0,0,*1D
$PFLAA,0,238,33,-98,2,DDA6F0,0,,0,0.0,1,0,0,*53
$PFLAA,0,221,41,-98,2,DF289E,0,,0,0.1,1,0,0,*2A
$POV,A,-6.8199,.3165,8.9495*0C
$POV,G,1.230,4.789,-1.822*06
$POV,E,14.18,P,959.11,Q,629.22*27
$GPRMC,115532.00,A,4834.16969,N,01155.97010,E,55.278,173.21,200626,,,A*51
$GPGGA,115532.00,4834.16969,N,01155.97010,E,1,11,0.75,573.9,M,46.1,M,,*51
$GPGSA,A,3,17,02,03,28,32,01,04,08,19,31,22,,1.27,0.75,1.02*0C
$PFLAU,4,1,2,1,0,-145,0,-107,156,DDA6B9*70
$PGRMZ,1492,F,2*04
$PFLAA,0,248,35,-119,2,DF289E,0,,0,0.1,1,0,0,*1E
$POV,A,-7.0285,-.0723,7.6413*2F
$POV,G,.156,1.660,-1.553*3C
$POV,E,15.25,P,958.11,Q,631.39*2A
$PFLAA,0,265,27,-119,2,DDA6F0,0,,0,0.0,1,0,0,*66
$PFLAA,0,273,35,-121,2,DDED1C,0,,0,0.0,1,0,0,*1B
$PFLAA,0,157,60,-128,2,DDA6B9,0,,0,0.0,1,0,0,*68
$POV,A,-7.1648,-.5177,7.4890*2C
$POV,G,1.477,.750,-.764*0F
$POV,E,16.71,P,956.98,Q,632.08*26
$GPRMC,115533.00,A,4834.15460,N,01155.97326,E,54.758,171.11,200626,,,A*56
$GPGGA,115533.00,4834.15460,N,01155.97326,E,1,11,0.75,594.7,M,46.1,M,,*56
$GPGSA,A,3,17,02,03,28,32,01,04,08,19,31,22,,1.27,0.75,1.02*0C
$PFLAL,11553202=X@lnwKPCQWfgZdxhE`DXEJAW>go*4F
$PFLAU,4,1,2,1,0,-146,0,-128,182,DDA6B9*77
$PGRMZ,1545,F,2*0F
$POV,A,-6.9292,-.7993,6.8826*26
$POV,G,1.808,.048,-1.593*3E
$POV,E,17.45,P,955.90,Q,623.44*23
$PFLAA,0,184,55,-150,2,DDA6B9,0,,0,0.0,1,0,0,*6F
$PFLAA,0,276,30,-141,2,DF289E,0,,0,0.0,1,0,0,*1A
$PFLAA,0,292,21,-141,2,DDA6F0,0,,0,0.0,1,0,0,*65
$PFLAA,0,300,30,-143,2,DDED1C,0,,0,0.0,1,0,0,*1F
$POV,A,-6.5559,-.9373,6.0542*27
$POV,G,-1.201,.498,-4.018*1A
$POV,E,17.55,P,954.79,Q,590.88*2F
$GPRMC,115534.00,A,4834.13957,N,01155.97690,E,55.146,170.75,200626,,,A*5D
$GPGGA,115534.00,4834.13957,N,01155.97690,E,1,11,0.75,615.1,M,46.1,M,,*5A
$GPGSA,A,3,17,02,03,28,32,01,04,08,19,31,22,,1.27,0.75,1.02*0C
$PFLAU,4,1,2,1,0,-151,0,-150,209,DDA6B9*7E
$PGRMZ,1630,F,2*0E
$PFLAA,0,213,50,-169,2,DDA6B9,0,,0,0.0,1,0,0,*6D
$POV,A,-7.2216,-.7191,7.7016*2F
$POV,G,-5.737,.660,-2.417*16
$POV,E,17.14,P,953.66,Q,556.75*2B
$PFLAA,0,321,16,-160,2,DDA6F0,0,,0,0.0,1,0,0,*6B
