$PFLAE,A,0,0,OK*1B
$PFLAE,A*33
$PFLAV,A,1.0,7.04,*3E
$PFLAU,0,0,0,1,0,,0,,*63
$PGRMZ,643,F,2*3B
$GPRMC,,V,,,,,,,,,,N*53
$GPGGA,,,,,,0,00,99.99,,,,,,*48
$GPGSA,A,1,,,,,,,,,,,,,99.99,99.99,99.99*30
$PFLAU,0,0,0,1,0,,0,,*63
$PGRMZ,643,F,2*3B
$GPRMC,,V,,,,,,,,,,N*53
$GPGGA,,,,,,0,00,99.99,,,,,,*48
$GPGSA,A,1,,,,,,,,,,,,,99.99,99.99,99.99*30
$PFLAF,A,5*29
$GPGGA,011814,4852.5941,S,12323.6000,W,1,05,1.6,500.0,M,0.0,M,,*72
$GPRMC,011814,A,4852.5941,S,12323.6000,W,97.2,0.0,250504,,,A*4D
$GPGSA,A,3,3,5,6,12,18,,,,,,,,,16,*21
$PFLAU,1,0,2,1,0,0,0,0,0*50
$PGRMZ,1476,F,2*0E
$GPGGA,011815,4852.5655,S,12323.6000,W,1,05,1.6,500.0,M,0.0,M,,*79
$GPRMC,011815,A,4852.5655,S,12323.6000,W,97.2,0.0,250504,,,A*46
$GPGSA,A,3,3,5,6,12,18,,,,,,,,,16,*21
$PFLAU,1,0,2,1,0,0,0,0,0*50
$PGRMZ,1476,F,2*0E
$GPGGA,011817,4852.5374,S,12323.6000,W,1,05,1.6,500.0,M,0.0,M,,*7D
$GPRMC,011817,A,4852.5374,S,12323.6000,W,97.2,0.0,250504,,,A*42
$GPGSA,A,3,3,5,6,12,18,,,,,,,,,16,*21
$PFLAU,1,0,2,1,0,0,0,0,0*50
$PGRMZ,1476,F,2*0E
$GPGGA,011818,4852.5088,S,12323.6000,W,1,05,1.6,500.0,M,0.0,M,,*72
$GPRMC,011818,A,4852.5088,S,12323.6000,W,97.2,0.0,250504,,,A*4D
$GPGSA,A,3,3,5,6,12,18,,,,,,,,,16,*21
$PFLAU,1,0,2,1,0,0,0,0,0*50
$PGRMZ,1476,F,2*0E
$GPGGA,011819,4852.4801,S,12323.6000,W,1,05,1.6,500.0,M,0.0,M,,*7B
$GPRMC,011819,A,4852.4801,S,12323.6000,W,97.2,0.0,250504,,,A*44
$GPGSA,A,3,3,5,6,12,18,,,,,,,,,16,*21
$PFLAU,1,0,2,1,1,0,3,0,0*52
$PGRMZ,1476,F,2*0E
$GPGGA,011820,4852.4515,S,12323.6000,W,1,05,1.6,500.0,M,0.0,M,,*79
$GPRMC,011820,A,4852.4515,S,12323.6000,W,97.2,0.0,250504,,,A*46
$GPGSA,A,3,3,5,6,12,18,,,,,,,,,16,*21
$PFLAU,1,0,2,1,1,0,3,0,0*52
$PGRMZ,1476,F,2*0E
$GPGGA,011821,4852.4234,S,12323.6000,W,1,05,1.6,500.0,M,0.0,M,,*7C
$GPRMC,011821,A,4852.4234,S,12323.6000,W,97.2,0.0,250504,,,A*43
$GPGSA,A,3,3,5,6,12,18,,,,,,,,,16,*21
$PFLAU,1,0,2,1,1,0,3,0,0*52
$PGRMZ,1476,F,2*0E
$GPGGA,011822,4852.3948,S,12323.6000,W,1,05,1.6,500.0,M,0.0,M,,*78
$GPRMC,011822,A,4852.3948,S,12323.6000,W,97.2,0.0,250504,,,A*47
$GPGSA,A,3,3,5,6,12,18,,,,,,,,,16,*21
$PFLAU,1,0,2,1,1,0,3,0,0*52
$PGRMZ,1476,F,2*0E
$GPGGA,011823,4852.3662,S,12323.6000,W,1,05,1.6,500.0,M,0.0,M,,*7E
$GPRMC,011823,A,4852.3662,S,12323.6000,W,97.2,0.0,250504,,,A*41
$GPGSA,A,3,3,5,6,12,18,,,,,,,,,16,*21
$PFLAU,1,0,2,1,1,0,3,0,0*52
$PGRMZ,1476,F,2*0E
$GPGGA,011824,4852.3376,S,12323.6000,W,1,05,1.6,500.0,M,0.0,M,,*79
$GPRMC,011824,A,4852.3376,S,12323.6000,W,97.2,0.0,250504,,,A*46
$GPGSA,A,3,3,5,6,12,18,,,,,,,,,16,*21
$PFLAU,1,0,2,1,0,0,0,0,0*50
$PGRMZ,1476,F,2*0E
$GPGGA,011825,4852.3095,S,12323.6000,W,1,05,1.6,500.0,M,0.0,M,,*76
$GPRMC,011825,A,4852.3095,S,12323.6000,W,97.2,0.0,250504,,,A*49
$GPGSA,A,3,3,5,6,12,18,,,,,,,,,16,*21
$PFLAU,1,0,2,1,0,0,0,0,0*50
$PGRMZ,1476,F,2*0E
$GPGGA,011826,4852.2809,S,12323.6000,W,1,05,1.6,500.0,M,0.0,M,,*79
$GPRMC,011826,A,4852.2809,S,12323.6000,W,97.2,0.0,250504,,,A*46
$GPGSA,A,3,3,5,6,12,18,,,,,,,,,16,*21
$PFLAU,1,0,2,1,0,0,0,0,0*50
$PGRMZ,1476,F,2*0E
$GPGGA,011827,4852.2523,S,12323.6000,W,1,05,1.6,500.0,M,0.0,M,,*7D
$GPRMC,011827,A,4852.2523,S,12323.6000,W,97.2,0.0,250504,,,A*42
$GPGSA,A,3,3,5,6,12,18,,,,,,,,,16,*21
$PFLAU,1,0,2,1,0,0,0,0,0*50
$PGRMZ,1476,F,2*0E
$GPGGA,011828,4852.2242,S,12323.6000,W,1,05,1.6,500.0,M,0.0,M,,*72
$GPRMC,011828,A,4852.2242,S,12323.6000,W,97.2,0.0,250504,,,A*4D
$GPGSA,A,3,3,5,6,12,18,,,,,,,,,16,*21
$PFLAU,1,0,2,1,0,0,0,0,0*50
$PGRMZ,1476,F,2*0E
$GPGGA,011829,4852.1956,S,12323.6000,W,1,05,1.6,500.0,M,0.0,M,,*7E
$GPRMC,011829,A,4852.1956,S,12323.6000,W,97.2,0.0,250504,,,A*41
$GPGSA,A,3,3,5,6,12,18,,,,,,,,,16,*21
$PFLAU,1,0,2,1,0,0,0,0,0*50
$PGRMZ,1476,F,2*0E
$GPGGA,011830,4852.1669,S,12323.6000,W,1,05,1.6,500.0,M,0.0,M,,*75
$GPRMC,011830,A,4852.1669,S,12323.6000,W,97.2,0.0,250504,,,A*4A
$GPGSA,A,3,3,5,6,12,18,,,,,,,,,16,*21
$PFLAU,1,0,2,1,0,0,0,0,0*50
$PGRMZ,1476,F,2*0E
$GPGGA,011831,4852.1383,S,12323.6000,W,1,05,1.6,500.0,M,0.0,M,,*75
$GPRMC,011831,A,4852.1383,S,12323.6000,W,97.2,0.0,250504,,,A*4A
$GPGSA,A,3,3,5,6,12,18,,,,,,,,,16,*21
$PFLAU,1,0,2,1,0,0,0,0,0*50
$PGRMZ,1476,F,2*0E
$GPGGA,011832,4852.1102,S,12323.6000,W,1,05,1.6,500.0,M,0.0,M,,*7D
$GPRMC,011832,A,4852.1102,S,12323.6000,W,97.2,0.0,250504,,,A*42
$GPGSA,A,3,3,5,6,12,18,,,,,,,,,16,*21
$PFLAU,1,0,2,1,0,0,0,0,0*50
$PGRMZ,1476,F,2*0E
$GPGGA,011833,4852.0816,S,12323.6000,W,1,05,1.6,500.0,M,0.0,M,,*71
$GPRMC,011833,A,4852.0816,S,12323.6000,W,97.2,0.0,250504,,,A*4E
$GPGSA,A,3,3,5,6,12,18,,,,,,,,,16,*21
$PFLAU,1,0,2,1,0,0,0,0,0*50
$PGRMZ,1476,F,2*0E
$GPGGA,011834,4852.0530,S,12323.6000,W,1,05,1.6,500.0,M,0.0,M,,*7F
$GPRMC,011834,A,4852.0530,S,12323.6000,W,97.2,0.0,250504,,,A*40
$GPGSA,A,3,3,5,6,12,18,,,,,,,,,16,*21
$PFLAU,1,0,2,1,1,0,3,0,0*52
$PGRMZ,1476,F,2*0E
$GPGGA,011836,4852.0244,S,12323.6000,W,1,05,1.6,500.0,M,0.0,M,,*79
$GPRMC,011836,A,4852.0244,S,12323.6000,W,97.2,0.0,250504,,,A*46
$GPGSA,A,3,3,5,6,12,18,,,,,,,,,16,*21
$PFLAU,1,0,2,1,1,0,3,0,0*52
$PGRMZ,1476,F,2*0E
$GPGGA,011837,4851.9963,S,12323.6000,W,1,05,1.6,500.0,M,0.0,M,,*7C
$GPRMC,011837,A,4851.9963,S,12323.6000,W,97.2,0.0,250504,,,A*43
$GPGSA,A,3,3,5,6,12,18,,,,,,,,,16,*21
$PFLAU,1,0,2,1,1,0,3,0,0*52
$PGRMZ,1476,F,2*0E
$GPGGA,011838,4851.9677,S,12323.6000,W,1,05,1.6,500.0,M,0.0,M,,*79
$GPRMC,011838,A,4851.9677,S,12323.6000,W,97.2,0.0,250504,,,A*46
$GPGSA,A,3,3,5,6,12,18,,,,,,,,,16,*21
$PFLAU,1,0,2,1,1,0,3,0,0*52
$PGRMZ,1476,F,2*0E
$GPGGA,011839,4851.9391,S,12323.6000,W,1,05,1.6,500.0,M,0.0,M,,*75
$GPRMC,011839,A,4851.9391,S,12323.6000,W,97.2,0.0,250504,,,A*4A
$GPGSA,A,3,3,5,6,12,18,,,,,,,,,16,*21
$PFLAU,1,0,2,1,1,0,3,0,0*52
$PGRMZ,1476,F,2*0E
$GPGGA,011840,4851.9110,S,12323.6000,W,1,05,1.6,500.0,M,0.0,M,,*70
$GPRMC,011840,A,4851.9110,S,12323.6000,W,97.2,0.0,250504,,,A*4F
$GPGSA,A,3,3,5,6,12,18,,,,,,,,,16,*21
$PFLAU,1,0,2,1,0,0,0,0,0*50
$PGRMZ,1476,F,2*0E
$GPGGA,011841,4851.8824,S,12323.6000,W,1,05,1.6,500.0,M,0.0,M,,*7E
$GPRMC,011841,A,4851.8824,S,12323.6000,W,97.2,0.0,250504,,,A*41
$GPGSA,A,3,3,5,6,12,18,,,,,,,,,16,*21
$PFLAU,1,0,2,1,0,0,0,0,0*50
$PGRMZ,1476,F,2*0E
$GPGGA,011842,4851.8537,S,12323.6000,W,1,05,1.6,500.0,M,0.0,M,,*72
$GPRMC,011842,A,4851.8537,S,12323.6000,W,97.2,0.0,250504,,,A*4D
$GPGSA,A,3,3,5,6,12,18,,,,,,,,,16,*21
$PFLAU,1,0,2,1,0,0,0,0,0*50
$PGRMZ,1476,F,2*0E
$GPGGA,011843,4851.8257,S,12323.6000,W,1,05,1.6,500.0,M,0.0,M,,*72
$GPRMC,011843,A,4851.8257,S,12323.6000,W,97.2,0.0,250504,,,A*4D
$GPGSA,A,3,3,5,6,12,18,,,,,,,,,16,*21
$PFLAU,1,0,2,1,0,0,0,0,0*50
$PGRMZ,1476,F,2*0E
$GPGGA,011844,4851.7970,S,12323.6000,W,1,05,1.6,500.0,M,0.0,M,,*74
$GPRMC,011844,A,4851.7970,S,12323.6000,W,97.2,0.0,250504,,,A*4B
$GPGSA,A,3,3,5,6,12,18,,,,,,,,,16,*21
$PFLAU,1,0,2,1,0,0,0,0,0*50
$PGRMZ,1476,F,2*0E
$PFLAU,0,0,0,1,0,,0,,*63
$PGRMZ,643,F,2*3B
$PFLAU,0,0,0,1,0,,0,,*63
$PGRMZ,643,F,2*3B
$PFLAU,0,0,0,1,0,,0,,*63
$PGRMZ,643,F,2*3B
$GPRMC,,V,,,,,,,,,,N*53
$GPGGA,,,,,,0,00,99.99,,,,,,*48
$GPGSA,A,1,,,,,,,,,,,,,99.99,99.99,99.99*30
$PFLAU,0,0,0,1,0,,0,,*63
$PGRMZ,643,F,2*3B
$PFLAU,0,0,0,1,0,,0,,*63
$PGRMZ,646,F,2*3E
$GPRMC,,V,,,,,,,,,,N*53
$GPGGA,,,,,,0,00,99.99,,,,,,*48
$GPGSA,A,1,,,,,,,,,,,,,99.99,99.99,99.99*30
$PFLAU,0,0,0,1,0,,0,,*63
$PGRMZ,643,F,2*3B
$GPRMC,,V,,,,,,,,,,N*53
$GPGGA,,,,,,0,00,99.99,,,,,,*48
$GPGSA,A,1,,,,,,,,,,,,,99.99,99.99,99.99*30
$PFLAU,0,0,0,1,0,,0,,*63
$PGRMZ,643,F,2*3B
$GPRMC,,V,,,,,,,,,,N*53
$GPGGA,,,,,,0,00,99.99,,,,,,*48
$GPGSA,A,1,,,,,,,,,,,,,99.99,99.99,99.99*30
$PFLAU,0,0,0,1,0,,0,,*63
$PGRMZ,643,F,2*3B
$GPRMC,,V,,,,,,,,,,N*53
$GPGGA,,,,,,0,00,99.99,,,,,,*48
$GPGSA,A,1,,,,,,,,,,,,,99.99,99.99,99.99*30
$PFLAU,0,0,0,1,0,,0,,*63
$PGRMZ,643,F,2*3B
$GPRMC,,V,,,,,,,,,,N*53
$GPGGA,,,,,,0,00,99.99,,,,,,*48
$GPGSA,A,1,,,,,,,,,,,,,99.99,99.99,99.99*30
