$PFLAF,A,1*2D
$GPGGA,001940,4852.5844,S,12323.6000,W,1,05,1.6,500.0,M,0.0,M,,*77
$GPRMC,001940,A,4852.5844,S,12323.6000,W,97.2,0.0,250504,,,A*48
$GPGSA,A,3,3,5,6,12,18,,,,,,,,,16,*21
$PFLAA,0,2941,0,0,2,123456,180,,50,0.0,8*57
$PFLAU,1,0,2,1,0,0,0,0,2941*6E
$PGRMZ,1476,F,2*0E
$GPGGA,001941,4852.5557,S,12323.6000,W,1,05,1.6,500.0,M,0.0,M,,*79
$GPRMC,001941,A,4852.5557,S,12323.6000,W,97.2,0.0,250504,,,A*46
$GPGSA,A,3,3,5,6,12,18,,,,,,,,,16,*21
$PFLAA,0,2836,0,0,2,123456,180,,50,0.0,8*56
$PFLAU,1,0,2,1,0,0,0,0,2836*6F
$PGRMZ,1476,F,2*0E
$GPGGA,001942,4852.5271,S,12323.6000,W,1,05,1.6,500.0,M,0.0,M,,*79
$GPRMC,001942,A,4852.5271,S,12323.6000,W,97.2,0.0,250504,,,A*46
$GPGSA,A,3,3,5,6,12,18,,,,,,,,,16,*21
$PFLAA,0,2730,0,0,2,123456,180,,50,0.0,8*5F
$PFLAU,1,0,2,1,0,0,0,0,2730*66
$PGRMZ,1476,F,2*0E
$GPGGA,001943,4852.4990,S,12323.6000,W,1,05,1.6,500.0,M,0.0,M,,*7D
$GPRMC,001943,A,4852.4990,S,12323.6000,W,97.2,0.0,250504,,,A*42
$GPGSA,A,3,3,5,6,12,18,,,,,,,,,16,*21
$PFLAA,0,2625,0,0,2,123456,180,,50,0.0,8*5A
$PFLAU,1,0,2,1,0,0,0,0,2625*63
$PGRMZ,1476,F,2*0E
$GPGGA,001944,4852.4704,S,12323.6000,W,1,05,1.6,500.0,M,0.0,M,,*79
$GPRMC,001944,A,4852.4704,S,12323.6000,W,97.2,0.0,250504,,,A*46
$GPGSA,A,3,3,5,6,12,18,,,,,,,,,16,*21
$PFLAA,0,2520,0,0,2,123456,180,,50,0.0,8*5C
$PFLAU,1,0,2,1,0,0,0,0,2520*65
$PGRMZ,1476,F,2*0E
$GPGGA,001945,4852.4423,S,12323.6000,W,1,05,1.6,500.0,M,0.0,M,,*7E
$GPRMC,001945,A,4852.4423,S,12323.6000,W,97.2,0.0,250504,,,A*41
$GPGSA,A,3,3,5,6,12,18,,,,,,,,,16,*21
$PFLAA,0,2415,0,0,2,123456,180,,50,0.0,8*5B
$PFLAU,1,0,2,1,0,0,0,0,2415*62
$PGRMZ,1476,F,2*0E
$GPGGA,001946,4852.4137,S,12323.6000,W,1,05,1.6,500.0,M,0.0,M,,*7D
$GPRMC,001946,A,4852.4137,S,12323.6000,W,97.2,0.0,250504,,,A*42
$GPGSA,A,3,3,5,6,12,18,,,,,,,,,16,*21
$PFLAA,0,2309,0,0,2,123456,180,,50,0.0,8*51
$PFLAU,1,0,2,1,0,0,0,0,2309*68
$PGRMZ,1476,F,2*0E
$GPGGA,001947,4852.3851,S,12323.6000,W,1,05,1.6,500.0,M,0.0,M,,*72
$GPRMC,001947,A,4852.3851,S,12323.6000,W,97.2,0.0,250504,,,A*4D
$GPGSA,A,3,3,5,6,12,18,,,,,,,,,16,*21
$PFLAA,0,2204,0,0,2,123456,180,,50,0.0,8*5D
$PFLAU,1,0,2,1,0,0,0,0,2204*64
$PGRMZ,1476,F,2*0E
$GPGGA,001948,4852.3570,S,12323.6000,W,1,05,1.6,500.0,M,0.0,M,,*73
$GPRMC,001948,A,4852.3570,S,12323.6000,W,97.2,0.0,250504,,,A*4C
$GPGSA,A,3,3,5,6,12,18,,,,,,,,,16,*21
$PFLAA,0,2099,0,0,2,123456,180,,50,0.0,8*5B
$PFLAU,1,0,2,1,0,0,0,0,2099*62
$PGRMZ,1476,F,2*0E
$GPGGA,001950,4852.3284,S,12323.6000,W,1,05,1.6,500.0,M,0.0,M,,*76
$GPRMC,001950,A,4852.3284,S,12323.6000,W,97.2,0.0,250504,,,A*49
$GPGSA,A,3,3,5,6,12,18,,,,,,,,,16,*21
$PFLAA,0,1994,0,0,2,123456,180,,50,0.0,8*5C
$PFLAU,1,0,2,1,0,0,0,0,1994*65
$PGRMZ,1476,F,2*0E
$GPGGA,001951,4852.2998,S,12323.6000,W,1,05,1.6,500.0,M,0.0,M,,*70
$GPRMC,001951,A,4852.2998,S,12323.6000,W,97.2,0.0,250504,,,A*4F
$GPGSA,A,3,3,5,6,12,18,,,,,,,,,16,*21
$PFLAA,1,1888,0,0,2,123456,180,,50,0.0,8*51
$PFLAU,1,0,2,1,1,0,2,0,1888*6A
$PGRMZ,1476,F,2*0E
$GPGGA,001952,4852.2717,S,12323.6000,W,1,05,1.6,500.0,M,0.0,M,,*7A
$GPRMC,001952,A,4852.2717,S,12323.6000,W,97.2,0.0,250504,,,A*45
$GPGSA,A,3,3,5,6,12,18,,,,,,,,,16,*21
$PFLAA,1,1783,0,0,2,123456,180,,50,0.0,8*55
$PFLAU,1,0,2,1,1,0,2,0,1783*6E
$PGRMZ,1476,F,2*0E
$GPGGA,001953,4852.2431,S,12323.6000,W,1,05,1.6,500.0,M,0.0,M,,*7C
$GPRMC,001953,A,4852.2431,S,12323.6000,W,97.2,0.0,250504,,,A*43
$GPGSA,A,3,3,5,6,12,18,,,,,,,,,16,*21
$PFLAA,1,1677,0,0,2,123456,180,,50,0.0,8*5F
$PFLAU,1,0,2,1,1,0,2,0,1677*64
$PGRMZ,1476,F,2*0E
$GPGGA,001954,4852.2145,S,12323.6000,W,1,05,1.6,500.0,M,0.0,M,,*7D
$GPRMC,001954,A,4852.2145,S,12323.6000,W,97.2,0.0,250504,,,A*42
$GPGSA,A,3,3,5,6,12,18,,,,,,,,,16,*21
$PFLAA,1,1572,0,0,2,123456,180,,50,0.0,8*59
$PFLAU,1,0,2,1,1,0,2,0,1572*62
$PGRMZ,1476,F,2*0E
$GPGGA,001955,4852.1864,S,12323.6000,W,1,05,1.6,500.0,M,0.0,M,,*75
$GPRMC,001955,A,4852.1864,S,12323.6000,W,97.2,0.0,250504,,,A*4A
$GPGSA,A,3,3,5,6,12,18,,,,,,,,,16,*21
$PFLAA,1,1467,0,0,2,123456,180,,50,0.0,8*5C
$PFLAU,1,0,2,1,1,0,2,0,1467*67
$PGRMZ,1476,F,2*0E
$GPGGA,001956,4852.1578,S,12323.6000,W,1,05,1.6,500.0,M,0.0,M,,*76
$GPRMC,001956,A,4852.1578,S,12323.6000,W,97.2,0.0,250504,,,A*49
$GPGSA,A,3,3,5,6,12,18,,,,,,,,,16,*21
$PFLAA,2,1361,0,0,2,123456,180,,50,0.0,8*5E
$PFLAU,1,0,2,1,2,0,2,0,1361*65
$PGRMZ,1476,F,2*0E
$GPGGA,001957,4852.1291,S,12323.6000,W,1,05,1.6,500.0,M,0.0,M,,*77
$GPRMC,001957,A,4852.1291,S,12323.6000,W,97.2,0.0,250504,,,A*48
$GPGSA,A,3,3,5,6,12,18,,,,,,,,,16,*21
$PFLAA,2,1255,0,0,2,123456,180,,50,0.0,8*58
$PFLAU,1,0,2,1,2,0,2,0,1255*63
$PGRMZ,1476,F,2*0E
$GPGGA,001958,4852.1005,S,12323.6000,W,1,05,1.6,500.0,M,0.0,M,,*77
$GPRMC,001958,A,4852.1005,S,12323.6000,W,97.2,0.0,250504,,,A*48
$GPGSA,A,3,3,5,6,12,18,,,,,,,,,16,*21
$PFLAA,2,1150,0,0,2,123456,180,,50,0.0,8*5E
$PFLAU,1,0,2,1,2,0,2,0,1150*65
$PGRMZ,1476,F,2*0E
$GPGGA,001959,4852.0719,S,12323.6000,W,1,05,1.6,500.0,M,0.0,M,,*7D
$GPRMC,001959,A,4852.0719,S,12323.6000,W,97.2,0.0,250504,,,A*42
$GPGSA,A,3,3,5,6,12,18,,,,,,,,,16,*21
$PFLAA,2,1044,0,0,2,123456,180,,50,0.0,8*5A
$PFLAU,1,0,2,1,2,0,2,0,1044*61
$PGRMZ,1476,F,2*0E
$GPGGA,002000,4852.0438,S,12323.6000,W,1,05,1.6,500.0,M,0.0,M,,*7B
$GPRMC,002000,A,4852.0438,S,12323.6000,W,97.2,0.0,250504,,,A*44
$GPGSA,A,3,3,5,6,12,18,,,,,,,,,16,*21
$PFLAA,3,939,0,0,2,123456,180,,50,0.0,8*69
$PFLAU,1,0,2,1,3,0,2,0,939*52
$PGRMZ,1476,F,2*0E
$GPGGA,002001,4852.0152,S,12323.6000,W,1,05,1.6,500.0,M,0.0,M,,*73
$GPRMC,002001,A,4852.0152,S,12323.6000,W,97.2,0.0,250504,,,A*4C
$GPGSA,A,3,3,5,6,12,18,,,,,,,,,16,*21
$PFLAA,3,833,0,0,2,123456,180,,50,0.0,8*62
$PFLAU,1,0,2,1,3,0,2,0,833*59
$PGRMZ,1476,F,2*0E
$GPGGA,002002,4851.9866,S,12323.6000,W,1,05,1.6,500.0,M,0.0,M,,*74
$GPRMC,002002,A,4851.9866,S,12323.6000,W,97.2,0.0,250504,,,A*4B
$GPGSA,A,3,3,5,6,12,18,,,,,,,,,16,*21
$PFLAA,3,728,0,0,2,123456,180,,50,0.0,8*67
$PFLAU,1,0,2,1,3,0,2,0,728*5C
$PGRMZ,1476,F,2*0E
$GPGGA,002003,4851.9580,S,12323.6000,W,1,05,1.6,500.0,M,0.0,M,,*70
$GPRMC,002003,A,4851.9580,S,12323.6000,W,97.2,0.0,250504,,,A*4F
$GPGSA,A,3,3,5,6,12,18,,,,,,,,,16,*21
$PFLAA,3,622,0,0,2,123456,180,,50,0.0,8*6C
$PFLAU,1,0,2,1,3,0,2,0,622*57
$PGRMZ,1476,F,2*0E
$GPGGA,002004,4851.9299,S,12323.6000,W,1,05,1.6,500.0,M,0.0,M,,*78
$GPRMC,002004,A,4851.9299,S,12323.6000,W,97.2,0.0,250504,,,A*47
$GPGSA,A,3,3,5,6,12,18,,,,,,,,,16,*21
$PFLAA,3,517,0,0,2,123456,180,,50,0.0,8*69
$PFLAU,1,0,2,1,3,0,2,0,517*52
$PGRMZ,1476,F,2*0E
$GPGGA,002005,4851.9013,S,12323.6000,W,1,05,1.6,500.0,M,0.0,M,,*79
$GPRMC,002005,A,4851.9013,S,12323.6000,W,97.2,0.0,250504,,,A*46
$GPGSA,A,3,3,5,6,12,18,,,,,,,,,16,*21
$PFLAA,3,412,0,0,2,123456,180,,50,0.0,8*6D
$PFLAU,1,0,2,1,3,0,2,0,412*56
$PGRMZ,1476,F,2*0E
$GPGGA,002006,4851.8726,S,12323.6000,W,1,05,1.6,500.0,M,0.0,M,,*7A
$GPRMC,002006,A,4851.8726,S,12323.6000,W,97.2,0.0,250504,,,A*45
$GPGSA,A,3,3,5,6,12,18,,,,,,,,,16,*21
$PFLAA,3,306,0,0,2,123456,180,,50,0.0,8*6F
$PFLAU,1,0,2,1,3,0,2,0,306*54
$PGRMZ,1476,F,2*0E
$GPGGA,002007,4851.8446,S,12323.6000,W,1,05,1.6,500.0,M,0.0,M,,*7E
$GPRMC,002007,A,4851.8446,S,12323.6000,W,97.2,0.0,250504,,,A*41
$GPGSA,A,3,3,5,6,12,18,,,,,,,,,16,*21
$PFLAA,3,201,0,0,2,123456,180,,50,0.0,8*69
$PFLAU,1,0,2,1,3,0,2,0,201*52
$PGRMZ,1476,F,2*0E
$GPGGA,002009,4851.8159,S,12323.6000,W,1,05,1.6,500.0,M,0.0,M,,*7B
$GPRMC,002009,A,4851.8159,S,12323.6000,W,97.2,0.0,250504,,,A*44
$GPGSA,A,3,3,5,6,12,18,,,,,,,,,16,*21
$PFLAA,3,96,0,0,2,123456,180,,50,0.0,8*55
$PFLAU,1,0,2,1,3,0,2,0,96*6E
$PGRMZ,1476,F,2*0E
$PFLAU,0,0,0,1,0,,0,,*63
$PGRMZ,639,F,2*36
$PFLAU,0,0,0,1,0,,0,,*63
$PGRMZ,639,F,2*36
$PFLAU,0,0,0,1,0,,0,,*63
$PGRMZ,643,F,2*3B
