$PFLAE,A,0,0,OK*1B
$PFLAE,A*33
$PFLAV,A,1.0,7.04,*3E
$PFLAU,0,0,0,1,0,,0,,*63
$PGRMZ,643,F,2*3B
$GPRMC,,V,,,,,,,,,,N*53
$GPGGA,,,,,,0,00,99.99,,,,,,*48
$GPGSA,A,1,,,,,,,,,,,,,99.99,99.99,99.99*30
$PFLAU,0,0,0,1,0,,0,,*63
$PGRMZ,646,F,2*3E $GPRMC,,V,,,,,,,,,,N*53
$GPGGA,,,,,,0,00,99.99,,,,,,*48
$GPGSA,A,1,,,,,,,,,,,,,99.99,99.99,99.99*30
$PFLAF,A,4*28
$GPGGA,011706,4852.5827,S,12323.6000,W,1,05,1.6,500.0,M,0.0,M,,*7F
$GPRMC,011706,A,4852.5827,S,12323.6000,W,97.2,0.0,250504,,,A*40
$GPGSA,A,3,3,5,6,12,18,,,,,,,,,16,*21
$PFLAU,1,0,2,1,0,0,0,0,1450*60
$PGRMZ,1476,F,2*0E
$GPGGA,011707,4852.5541,S,12323.6000,W,1,05,1.6,500.0,M,0.0,M,,*73
$GPRMC,011707,A,4852.5541,S,12323.6000,W,97.2,0.0,250504,,,A*4C
$GPGSA,A,3,3,5,6,12,18,,,,,,,,,16,*21
$PFLAU,1,0,2,1,0,0,0,0,1400*65
$PGRMZ,1476,F,2*0E
$GPGGA,011709,4852.5260,S,12323.6000,W,1,05,1.6,500.0,M,0.0,M,,*79
$GPRMC,011709,A,4852.5260,S,12323.6000,W,97.2,0.0,250504,,,A*46
$GPGSA,A,3,3,5,6,12,18,,,,,,,,,16,*21
$PFLAU,1,0,2,1,0,0,0,0,1350*67
$PGRMZ,1476,F,2*0E
$GPGGA,011710,4852.4974,S,12323.6000,W,1,05,1.6,500.0,M,0.0,M,,*7E
$GPRMC,011710,A,4852.4974,S,12323.6000,W,97.2,0.0,250504,,,A*41
$GPGSA,A,3,3,5,6,12,18,,,,,,,,,16,*21
$PFLAU,1,0,2,1,0,0,0,0,1300*62
$PGRMZ,1476,F,2*0E
$GPGGA,011711,4852.4688,S,12323.6000,W,1,05,1.6,500.0,M,0.0,M,,*73
$GPRMC,011711,A,4852.4688,S,12323.6000,W,97.2,0.0,250504,,,A*4C
$GPGSA,A,3,3,5,6,12,18,,,,,,,,,16,*21
$PFLAU,1,0,2,1,0,0,0,0,1250*66
$PGRMZ,1476,F,2*0E
$GPGGA,011712,4852.4402,S,12323.6000,W,1,05,1.6,500.0,M,0.0,M,,*70
$GPRMC,011712,A,4852.4402,S,12323.6000,W,97.2,0.0,250504,,,A*4F
$GPGSA,A,3,3,5,6,12,18,,,,,,,,,16,*21
$PFLAU,1,0,2,1,0,0,0,0,1200*63
$PGRMZ,1476,F,2*0E
$GPGGA,011713,4852.4121,S,12323.6000,W,1,05,1.6,500.0,M,0.0,M,,*75
$GPRMC,011713,A,4852.4121,S,12323.6000,W,97.2,0.0,250504,,,A*4A
$GPGSA,A,3,3,5,6,12,18,,,,,,,,,16,*21
$PFLAU,1,0,2,1,0,0,0,0,1150*65
$PGRMZ,1476,F,2*0E
$GPGGA,011714,4852.3835,S,12323.6000,W,1,05,1.6,500.0,M,0.0,M,,*79
$GPRMC,011714,A,4852.3835,S,12323.6000,W,97.2,0.0,250504,,,A*46
$GPGSA,A,3,3,5,6,12,18,,,,,,,,,16,*21
$PFLAU,1,0,2,1,0,0,0,0,1050*64
$PGRMZ,1476,F,2*0E
$GPGGA,011715,4852.3554,S,12323.6000,W,1,05,1.6,500.0,M,0.0,M,,*72
$GPRMC,011715,A,4852.3554,S,12323.6000,W,97.2,0.0,250504,,,A*4D
$GPGSA,A,3,3,5,6,12,18,,,,,,,,,16,*21
$PFLAU,1,0,2,1,0,0,0,0,1000*61
$PGRMZ,1476,F,2*0E
$GPGGA,011716,4852.3268,S,12323.6000,W,1,05,1.6,500.0,M,0.0,M,,*79
$GPRMC,011716,A,4852.3268,S,12323.6000,W,97.2,0.0,250504,,,A*46
$GPGSA,A,3,3,5,6,12,18,,,,,,,,,16,*21
$PFLAU,1,0,2,1,1,0,3,0,950*5E
$PGRMZ,1476,F,2*0E
$GPGGA,011717,4852.2982,S,12323.6000,W,1,05,1.6,500.0,M,0.0,M,,*76
$GPRMC,011717,A,4852.2982,S,12323.6000,W,97.2,0.0,250504,,,A*49
$GPGSA,A,3,3,5,6,12,18,,,,,,,,,16,*21
$PFLAU,1,0,2,1,1,0,3,0,900*5B
$PGRMZ,1476,F,2*0E
$GPGGA,011718,4852.2701,S,12323.6000,W,1,05,1.6,500.0,M,0.0,M,,*7C
$GPRMC,011718,A,4852.2701,S,12323.6000,W,97.2,0.0,250504,,,A*43
$GPGSA,A,3,3,5,6,12,18,,,,,,,,,16,*21
$PFLAU,1,0,2,1,1,0,3,0,850*5F
$PGRMZ,1476,F,2*0E
$GPGGA,011719,4852.2415,S,12323.6000,W,1,05,1.6,500.0,M,0.0,M,,*7B
$GPRMC,011719,A,4852.2415,S,12323.6000,W,97.2,0.0,250504,,,A*44
$GPGSA,A,3,3,5,6,12,18,,,,,,,,,16,*21
$PFLAU,1,0,2,1,1,0,3,0,800*5A
$PGRMZ,1476,F,2*0E
$GPGGA,011720,4852.2128,S,12323.6000,W,1,05,1.6,500.0,M,0.0,M,,*7A
$GPRMC,011720,A,4852.2128,S,12323.6000,W,97.2,0.0,250504,,,A*45
$GPGSA,A,3,3,5,6,12,18,,,,,,,,,16,*21
$PFLAU,1,0,2,1,1,0,3,0,750*50
$PGRMZ,1476,F,2*0E
$GPGGA,011721,4852.1848,S,12323.6000,W,1,05,1.6,500.0,M,0.0,M,,*77
$GPRMC,011721,A,4852.1848,S,12323.6000,W,97.2,0.0,250504,,,A*48
$GPGSA,A,3,3,5,6,12,18,,,,,,,,,16,*21
$PFLAU,1,0,2,1,2,0,3,0,700*56
$PGRMZ,1476,F,2*0E
$GPGGA,011722,4852.1561,S,12323.6000,W,1,05,1.6,500.0,M,0.0,M,,*72
$GPRMC,011722,A,4852.1561,S,12323.6000,W,97.2,0.0,250504,,,A*4D
$GPGSA,A,3,3,5,6,12,18,,,,,,,,,16,*21
$PFLAU,1,0,2,1,2,0,3,0,650*52
$PGRMZ,1476,F,2*0E
$GPGGA,011723,4852.1275,S,12323.6000,W,1,05,1.6,500.0,M,0.0,M,,*71
$GPRMC,011723,A,4852.1275,S,12323.6000,W,97.2,0.0,250504,,,A*4E
$GPGSA,A,3,3,5,6,12,18,,,,,,,,,16,*21
$PFLAU,1,0,2,1,2,0,3,0,600*57
$PGRMZ,1476,F,2*0E
$GPGGA,011724,4852.0994,S,12323.6000,W,1,05,1.6,500.0,M,0.0,M,,*73
$GPRMC,011724,A,4852.0994,S,12323.6000,W,97.2,0.0,250504,,,A*4C
$GPGSA,A,3,3,5,6,12,18,,,,,,,,,16,*21
$PFLAU,1,0,2,1,2,0,3,0,550*51
$PGRMZ,1476,F,2*0E
$GPGGA,011725,4852.0708,S,12323.6000,W,1,05,1.6,500.0,M,0.0,M,,*79
$GPRMC,011725,A,4852.0708,S,12323.6000,W,97.2,0.0,250504,,,A*46
$GPGSA,A,3,3,5,6,12,18,,,,,,,,,16,*21
$PFLAU,1,0,2,1,2,0,3,0,500*54
$PGRMZ,1476,F,2*0E
$GPGGA,011726,4852.0422,S,12323.6000,W,1,05,1.6,500.0,M,0.0,M,,*71
$GPRMC,011726,A,4852.0422,S,12323.6000,W,97.2,0.0,250504,,,A*4E
$GPGSA,A,3,3,5,6,12,18,,,,,,,,,16,*21
$PFLAU,1,0,2,1,3,0,3,0,450*51
$PGRMZ,1476,F,2*0E
$GPGGA,011727,4852.0136,S,12323.6000,W,1,05,1.6,500.0,M,0.0,M,,*70
$GPRMC,011727,A,4852.0136,S,12323.6000,W,97.2,0.0,250504,,,A*4F
$GPGSA,A,3,3,5,6,12,18,,,,,,,,,16,*21
$PFLAU,1,0,2,1,3,0,3,0,400*54
$PGRMZ,1476,F,2*0E
$GPGGA,011729,4851.9855,S,12323.6000,W,1,05,1.6,500.0,M,0.0,M,,*78
$GPRMC,011729,A,4851.9855,S,12323.6000,W,97.2,0.0,250504,,,A*47
$GPGSA,A,3,3,5,6,12,18,,,,,,,,,16,*21
$PFLAU,1,0,2,1,3,0,3,0,350*56
$PGRMZ,1476,F,2*0E
$GPGGA,011730,4851.9569,S,12323.6000,W,1,05,1.6,500.0,M,0.0,M,,*72
$GPRMC,011730,A,4851.9569,S,12323.6000,W,97.2,0.0,250504,,,A*4D
$GPGSA,A,3,3,5,6,12,18,,,,,,,,,16,*21
$PFLAU,1,0,2,1,3,0,3,0,300*53
$PGRMZ,1476,F,2*0E
$GPGGA,011731,4851.9283,S,12323.6000,W,1,05,1.6,500.0,M,0.0,M,,*70
$GPRMC,011731,A,4851.9283,S,12323.6000,W,97.2,0.0,250504,,,A*4F
$GPGSA,A,3,3,5,6,12,18,,,,,,,,,16,*21
$PFLAU,1,0,2,1,3,0,3,0,250*57
$PGRMZ,1476,F,2*0E
$GPGGA,011732,4851.9002,S,12323.6000,W,1,05,1.6,500.0,M,0.0,M,,*78
$GPRMC,011732,A,4851.9002,S,12323.6000,W,97.2,0.0,250504,,,A*47
$GPGSA,A,3,3,5,6,12,18,,,,,,,,,16,*21
$PFLAU,1,0,2,1,3,0,3,0,200*52
$PGRMZ,1476,F,2*0E
$GPGGA,011733,4851.8716,S,12323.6000,W,1,05,1.6,500.0,M,0.0,M,,*7A
$GPRMC,011733,A,4851.8716,S,12323.6000,W,97.2,0.0,250504,,,A*45
$GPGSA,A,3,3,5,6,12,18,,,,,,,,,16,*21
$GPGGA,011734,4851.8429,S,12323.6000,W,1,05,1.6,500.0,M,0.0,M,,*72
$GPRMC,011734,A,4851.8429,S,12323.6000,W,97.2,0.0,250504,,,A*4D
$GPGSA,A,3,3,5,6,12,18,,,,,,,,,16,*21
$PFLAU,1,0,2,1,3,0,3,0,50*65
$PGRMZ,1476,F,2*0E
$GPGGA,011735,4851.8143,S,12323.6000,W,1,05,1.6,500.0,M,0.0,M,,*7A
$GPRMC,011735,A,4851.8143,S,12323.6000,W,97.2,0.0,250504,,,A*45
$GPGSA,A,3,3,5,6,12,18,,,,,,,,,16,*21
$PFLAU,1,0,2,1,3,0,3,0,0*50
$PGRMZ,1476,F,2*0E
$PFLAU,0,0,0,1,0,,0,,*63
$PGRMZ,643,F,2*3B
$PFLAU,0,0,0,1,0,,0,,*63
$PGRMZ,643,F,2*3B
$PFLAU,0,0,0,1,0,,0,,*63
$PGRMZ,643,F,2*3B
$GPRMC,,V,,,,,,,,,,N*53
$GPGGA,,,,,,0,00,99.99,,,,,,*48
$GPGSA,A,1,,,,,,,,,,,,,99.99,99.99,99.99*30
$PFLAU,0,0,0,1,0,,0,,*63
$PGRMZ,643,F,2*3B
$PFLAU,0,0,0,1,0,,0,,*63
$PGRMZ,646,F,2*3E
$GPRMC,,V,,,,,,,,,,N*53
$GPGGA,,,,,,0,00,99.99,,,,,,*48
$GPGSA,A,1,,,,,,,,,,,,,99.99,99.99,99.99*30
$PFLAU,0,0,0,1,0,,0,,*63
$PGRMZ,643,F,2*3B
$GPRMC,,V,,,,,,,,,,N*53
$GPGGA,,,,,,0,00,99.99,,,,,,*48
$GPGSA,A,1,,,,,,,,,,,,,99.99,99.99,99.99*30
$PFLAU,0,0,0,1,0,,0,,*63
$PGRMZ,643,F,2*3B
$GPRMC,,V,,,,,,,,,,N*53
$GPGGA,,,,,,0,00,99.99,,,,,,*48
$GPGSA,A,1,,,,,,,,,,,,,99.99,99.99,99.99*30
$PFLAU,0,0,0,1,0,,0,,*63
$PGRMZ,643,F,2*3B
$GPRMC,,V,,,,,,,,,,N*53
$GPGGA,,,,,,0,00,99.99,,,,,,*48
$GPGSA,A,1,,,,,,,,,,,,,99.99,99.99,99.99*30
$PFLAU,0,0,0,1,0,,0,,*63
$PGRMZ,643,F,2*3B
$GPRMC,,V,,,,,,,,,,N*53
$GPGGA,,,,,,0,00,99.99,,,,,,*48
$GPGSA,A,1,,,,,,,,,,,,,99.99,99.99,99.99*30
$PFLAU,0,0,0,1,0,,0,,*63
$PGRMZ,646,F,2*3E
$GPRMC,,V,,,,,,,,,,N*53
$GPGGA,,,,,,0,00,99.99,,,,,,*48
$GPGSA,A,1,,,,,,,,,,,,,99.99,99.99,99.99*30
$PFLAU,0,0,0,1,0,,0,,*63
$PGRMZ,643,F,2*3B
$GPRMC,,V,,,,,,,,,,N*53
$GPGGA,,,,,,0,00,99.99,,,,,,*48
$GPGSA,A,1,,,,,,,,,,,,,99.99,99.99,99.99*30
$PFLAU,0,0,0,1,0,,0,,*63
$PGRMZ,643,F,2*3B
$GPRMC,,V,,,,,,,,,,N*53
$GPGGA,,,,,,0,00,99.99,,,,,,*48
$GPGSA,A,1,,,,,,,,,,,,,99.99,99.99,99.99*30
$PFLAU,0,0,0,1,0,,0,,*63
$PGRMZ,643,F,2*3B
