$PFLAU,0,0,0,1,0,,0,,*63
$PGRMZ,643,F,2*3B
$GPRMC,,V,,,,,,,,,,N*53
$GPGGA,,,,,,0,00,99.99,,,,,,*48
$GPGSA,A,1,,,,,,,,,,,,,99.99,99.99,99.99*30
$PFLAE,A,0,0,OK*1B
$PFLAE,A*33
$PFLAV,A,1.0,7.04,*3E
$PFLAU,0,0,0,1,0,,0,,*63
$PGRMZ,643,F,2*3B
$GPRMC,,V,,,,,,,,,,N*53
$GPGGA,,,,,,0,00,99.99,,,,,,*48
$GPGSA,A,1,,,,,,,,,,,,,99.99,99.99,99.99*30
$PFLAU,0,0,0,1,0,,0,,*63
$PGRMZ,646,F,2*3E
$GPRMC,,V,,,,,,,,,,N*53
$GPGGA,,,,,,0,00,99.99,,,,,,*48
$GPGSA,A,1,,,,,,,,,,,,,99.99,99.99,99.99*30
$PFLAU,0,0,0,1,0,,0,,*63
$PGRMZ,643,F,2*3B
$GPRMC,,V,,,,,,,,,,N*53
$GPGGA,,,,,,0,00,99.99,,,,,,*48
$GPGSA,A,1,,,,,,,,,,,,,99.99,99.99,99.99*30
$PFLAU,0,0,0,1,0,,0,,*63
$PGRMZ,643,F,2*3B
$GPRMC,,V,,,,,,,,,,N*53
$GPGGA,,,,,,0,00,99.99,,,,,,*48
$GPGSA,A,1,,,,,,,,,,,,,99.99,99.99,99.99*30
$PFLAU,0,0,0,1,0,,0,,*63
$PGRMZ,643,F,2*3B
$GPRMC,,V,,,,,,,,,,N*53
$GPGGA,,,,,,0,00,99.99,,,,,,*48
$GPGSA,A,1,,,,,,,,,,,,,99.99,99.99,99.99*30
$PFLAF,A,2*2E
$GPGGA,011455,4852.5833,S,12323.6000,W,1,05,1.6,500.0,M,0.0,M,,*7F
$GPRMC,011455,A,4852.5833,S,12323.6000,W,97.2,0.0,250504,,,A*40
$GPGSA,A,3,3,5,6,12,18,,,,,,,,,16,*21
$PFLAA,0,0,-2938,0,1,123456,45,,71,0.0,9*4D
$PFLAU,1,0,2,1,0,-90,0,0,2938*74
$PGRMZ,1476,F,2*0E
$GPGGA,011456,4852.5552,S,12323.6000,W,1,05,1.6,500.0,M,0.0,M,,*76
$GPRMC,011456,A,4852.5552,S,12323.6000,W,97.2,0.0,250504,,,A*49
$GPGSA,A,3,3,5,6,12,18,,,,,,,,,16,*21
$PFLAA,0,0,-2833,0,1,123456,45,,71,0.0,9*47
$PFLAU,1,0,2,1,0,-90,0,0,2833*7E
$PGRMZ,1476,F,2*0E
$GPGGA,011457,4852.5266,S,12323.6000,W,1,05,1.6,500.0,M,0.0,M,,*77
$GPRMC,011457,A,4852.5266,S,12323.6000,W,97.2,0.0,250504,,,A*48
$GPGSA,A,3,3,5,6,12,18,,,,,,,,,16,*21
$PFLAA,0,0,-2727,0,1,123456,45,,71,0.0,9*4D
$PFLAU,1,0,2,1,0,-90,0,0,2727*74
$PGRMZ,1476,F,2*0E
$GPGGA,011458,4852.4980,S,12323.6000,W,1,05,1.6,500.0,M,0.0,M,,*7A
$GPRMC,011458,A,4852.4980,S,12323.6000,W,97.2,0.0,250504,,,A*45
$GPGSA,A,3,3,5,6,12,18,,,,,,,,,16,*21
$PFLAA,0,0,-2621,0,1,123456,45,,71,0.0,9*4A
$PFLAU,1,0,2,1,0,-90,0,0,2621*73
$PGRMZ,1476,F,2*0E
$GPGGA,011500,4852.4693,S,12323.6000,W,1,05,1.6,500.0,M,0.0,M,,*7B
$GPRMC,011500,A,4852.4693,S,12323.6000,W,97.2,0.0,250504,,,A*44
$GPGSA,A,3,3,5,6,12,18,,,,,,,,,16,*21
$PFLAA,0,0,-2516,0,1,123456,45,,71,0.0,9*4D
$PFLAU,1,0,2,1,0,-90,0,0,2516*74
$PGRMZ,1476,F,2*0E
$GPGGA,011501,4852.4413,S,12323.6000,W,1,05,1.6,500.0,M,0.0,M,,*70
$GPRMC,011501,A,4852.4413,S,12323.6000,W,97.2,0.0,250504,,,A*4F
$GPGSA,A,3,3,5,6,12,18,,,,,,,,,16,*21
$PFLAA,0,0,-2411,0,1,123456,45,,71,0.0,9*4B
$PFLAU,1,0,2,1,0,-90,0,0,2411*72
$PGRMZ,1476,F,2*0E
$GPGGA,011502,4852.4126,S,12323.6000,W,1,05,1.6,500.0,M,0.0,M,,*70
$GPRMC,011502,A,4852.4126,S,12323.6000,W,97.2,0.0,250504,,,A*4F
$GPGSA,A,3,3,5,6,12,18,,,,,,,,,16,*21
$PFLAA,0,0,-2305,0,1,123456,45,,71,0.0,9*49
$PFLAU,1,0,2,1,0,-90,0,0,2305*70
$PGRMZ,1476,F,2*0E
$GPGGA,011503,4852.3840,S,12323.6000,W,1,05,1.6,500.0,M,0.0,M,,*7F
$GPRMC,011503,A,4852.3840,S,12323.6000,W,97.2,0.0,250504,,,A*40
$GPGSA,A,3,3,5,6,12,18,,,,,,,,,16,*21
$PFLAA,0,0,-2200,0,1,123456,45,,71,0.0,9*4D
$PFLAU,1,0,2,1,0,-90,0,0,2200*74
$PGRMZ,1476,F,2*0E
$GPGGA,011504,4852.3559,S,12323.6000,W,1,05,1.6,500.0,M,0.0,M,,*7D
$GPRMC,011504,A,4852.3559,S,12323.6000,W,97.2,0.0,250504,,,A*42
$GPGSA,A,3,3,5,6,12,18,,,,,,,,,16,*21
$PFLAA,0,0,-2095,0,1,123456,45,,71,0.0,9*43
$PFLAU,1,0,2,1,0,-90,0,0,2095*7A
$PGRMZ,1476,F,2*0E
$GPGGA,011505,4852.3273,S,12323.6000,W,1,05,1.6,500.0,M,0.0,M,,*73
$GPRMC,011505,A,4852.3273,S,12323.6000,W,97.2,0.0,250504,,,A*4C
$GPGSA,A,3,3,5,6,12,18,,,,,,,,,16,*21
$PFLAA,0,0,-1989,0,1,123456,45,,71,0.0,9*44
$PFLAU,1,0,2,1,0,-90,0,0,1989*7D
$PGRMZ,1476,F,2*0E
$GPGGA,011506,4852.2987,S,12323.6000,W,1,05,1.6,500.0,M,0.0,M,,*71
$GPRMC,011506,A,4852.2987,S,12323.6000,W,97.2,0.0,250504,,,A*4E
$GPGSA,A,3,3,5,6,12,18,,,,,,,,,16,*21
$PFLAA,1,0,-1884,0,1,123456,45,,71,0.0,9*49
$PFLAU,1,0,2,1,1,-90,2,0,1884*72
$PGRMZ,1476,F,2*0E
$GPGGA,011507,4852.2701,S,12323.6000,W,1,05,1.6,500.0,M,0.0,M,,*70
$GPRMC,011507,A,4852.2701,S,12323.6000,W,97.2,0.0,250504,,,A*4F
$GPGSA,A,3,3,5,6,12,18,,,,,,,,,16,*21
$PFLAA,1,0,-1778,0,1,123456,45,,71,0.0,9*45
$PFLAU,1,0,2,1,1,-90,2,0,1778*7E
$PGRMZ,1476,F,2*0E
$GPGGA,011508,4852.2420,S,12323.6000,W,1,05,1.6,500.0,M,0.0,M,,*7F
$GPRMC,011508,A,4852.2420,S,12323.6000,W,97.2,0.0,250504,,,A*40
$GPGSA,A,3,3,5,6,12,18,,,,,,,,,16,*21
$PFLAA,1,0,-1673,0,1,123456,45,,71,0.0,9*4F
$PFLAU,1,0,2,1,1,-90,2,0,1673*74
$PGRMZ,1476,F,2*0E
$GPGGA,011509,4852.2134,S,12323.6000,W,1,05,1.6,500.0,M,0.0,M,,*7E
$GPRMC,011509,A,4852.2134,S,12323.6000,W,97.2,0.0,250504,,,A*41
$GPGSA,A,3,3,5,6,12,18,,,,,,,,,16,*21
$PFLAA,1,0,-1567,0,1,123456,45,,71,0.0,9*49
$PFLAU,1,0,2,1,1,-90,2,0,1567*72
$PGRMZ,1476,F,2*0E
$GPGGA,011510,4852.1848,S,12323.6000,W,1,05,1.6,500.0,M,0.0,M,,*77
$GPRMC,011510,A,4852.1848,S,12323.6000,W,97.2,0.0,250504,,,A*48
$GPGSA,A,3,3,5,6,12,18,,,,,,,,,16,*21
$PFLAA,1,0,-1462,0,1,123456,45,,71,0.0,9*4D
$PFLAU,1,0,2,1,1,-90,2,0,1462*76
$PGRMZ,1476,F,2*0E
$GPGGA,011511,4852.1567,S,12323.6000,W,1,05,1.6,500.0,M,0.0,M,,*76
$GPRMC,011511,A,4852.1567,S,12323.6000,W,97.2,0.0,250504,,,A*49
$GPGSA,A,3,3,5,6,12,18,,,,,,,,,16,*21
$PFLAA,2,0,-1357,0,1,123456,45,,71,0.0,9*4F
$PFLAU,1,0,2,1,2,-90,2,0,1357*74
$PGRMZ,1476,F,2*0E
$GPGGA,011512,4852.1281,S,12323.6000,W,1,05,1.6,500.0,M,0.0,M,,*7A
$GPRMC,011512,A,4852.1281,S,12323.6000,W,97.2,0.0,250504,,,A*45
$GPGSA,A,3,3,5,6,12,18,,,,,,,,,16,*21
$PFLAA,2,0,-1251,0,1,123456,45,,71,0.0,9*48
$PFLAU,1,0,2,1,2,-90,2,0,1251*73
$PGRMZ,1476,F,2*0E
$GPGGA,011513,4852.0994,S,12323.6000,W,1,05,1.6,500.0,M,0.0,M,,*75
$GPRMC,011513,A,4852.0994,S,12323.6000,W,97.2,0.0,250504,,,A*4A
$GPGSA,A,3,3,5,6,12,18,,,,,,,,,16,*21
$PFLAA,2,0,-1146,0,1,123456,45,,71,0.0,9*4D
$PFLAU,1,0,2,1,2,-90,2,0,1146*76
$PGRMZ,1476,F,2*0E
$GPGGA,011514,4852.0714,S,12323.6000,W,1,05,1.6,500.0,M,0.0,M,,*74
$GPRMC,011514,A,4852.0714,S,12323.6000,W,97.2,0.0,250504,,,A*4B
$GPGSA,A,3,3,5,6,12,18,,,,,,,,,16,*21
$PFLAA,2,0,-1041,0,1,123456,45,,71,0.0,9*4B
$PFLAU,1,0,2,1,2,-90,2,0,1041*70
$PGRMZ,1476,F,2*0E
$GPGGA,011515,4852.0427,S,12323.6000,W,1,05,1.6,500.0,M,0.0,M,,*76
$GPRMC,011515,A,4852.0427,S,12323.6000,W,97.2,0.0,250504,,,A*49
$GPGSA,A,3,3,5,6,12,18,,,,,,,,,16,*21
$PFLAA,3,0,-936,0,1,123456,45,,71,0.0,9*72
$PFLAU,1,0,2,1,3,-90,2,0,936*49
$PGRMZ,1476,F,2*0E
$GPGGA,011516,4852.0147,S,12323.6000,W,1,05,1.6,500.0,M,0.0,M,,*76
$GPRMC,011516,A,4852.0147,S,12323.6000,W,97.2,0.0,250504,,,A*49
$GPGSA,A,3,3,5,6,12,18,,,,,,,,,16,*21
$PFLAA,3,0,-831,0,1,123456,45,,71,0.0,9*74 $PFLAU,1,0,2,1,3,-90,2,0,831*4F
$PGRMZ,1476,F,2*0E
$GPGGA,011517,4851.9860,S,12323.6000,W,1,05,1.6,500.0,M,0.0,M,,*71
$GPRMC,011517,A,4851.9860,S,12323.6000,W,97.2,0.0,250504,,,A*4E
$GPGSA,A,3,3,5,6,12,18,,,,,,,,,16,*21
$PFLAA,3,0,-725,0,1,123456,45,,71,0.0,9*7E
$PFLAU,1,0,2,1,3,-90,2,0,725*45
$PGRMZ,1476,F,2*0E
$GPGGA,011519,4851.9574,S,12323.6000,W,1,05,1.6,500.0,M,0.0,M,,*77
$GPRMC,011519,A,4851.9574,S,12323.6000,W,97.2,0.0,250504,,,A*48
$GPGSA,A,3,3,5,6,12,18,,,,,,,,,16,*21
$PFLAA,3,0,-619,0,1,123456,45,,71,0.0,9*70
$PFLAU,1,0,2,1,3,-90,2,0,619*4B
$PGRMZ,1476,F,2*0E
$GPGGA,011520,4851.9288,S,12323.6000,W,1,05,1.6,500.0,M,0.0,M,,*79
$GPRMC,011520,A,4851.9288,S,12323.6000,W,97.2,0.0,250504,,,A*46
$GPGSA,A,3,3,5,6,12,18,,,,,,,,,16,*21
$PFLAA,3,0,-514,0,1,123456,45,,71,0.0,9*7E
$PFLAU,1,0,2,1,3,-90,2,0,514*45
$PGRMZ,1476,F,2*0E
$GPGGA,011521,4851.9007,S,12323.6000,W,1,05,1.6,500.0,M,0.0,M,,*7D
$GPRMC,011521,A,4851.9007,S,12323.6000,W,97.2,0.0,250504,,,A*42
$GPGSA,A,3,3,5,6,12,18,,,,,,,,,16,*21
$PFLAA,3,0,-409,0,1,123456,45,,71,0.0,9*73
$PFLAU,1,0,2,1,3,-90,2,0,409*48
$PGRMZ,1476,F,2*0E
$GPGGA,011522,4851.8721,S,12323.6000,W,1,05,1.6,500.0,M,0.0,M,,*7C
$GPRMC,011522,A,4851.8721,S,12323.6000,W,97.2,0.0,250504,,,A*43
$GPGSA,A,3,3,5,6,12,18,,,,,,,,,16,*21
$PFLAA,3,0,-303,0,1,123456,45,,71,0.0,9*7E
$PFLAU,1,0,2,1,3,-90,2,0,303*45
$PGRMZ,1476,F,2*0E
$GPGGA,011523,4851.8435,S,12323.6000,W,1,05,1.6,500.0,M,0.0,M,,*7B
$GPRMC,011523,A,4851.8435,S,12323.6000,W,97.2,0.0,250504,,,A*44
$GPGSA,A,3,3,5,6,12,18,,,,,,,,,16,*21
$PFLAA,3,0,-198,0,1,123456,45,,71,0.0,9*7E
$PFLAU,1,0,2,1,3,-90,2,0,198*45
$PGRMZ,1476,F,2*0E
$GPGGA,011524,4851.8154,S,12323.6000,W,1,05,1.6,500.0,M,0.0,M,,*7E
$GPRMC,011524,A,4851.8154,S,12323.6000,W,97.2,0.0,250504,,,A*41
$GPGSA,A,3,3,5,6,12,18,,,,,,,,,16,*21
$PFLAA,3,0,-93,0,1,123456,45,,71,0.0,9*44
$PFLAU,1,0,2,1,3,-90,2,0,93*7F
$PGRMZ,1476,F,2*0E
$PFLAU,0,0,0,1,0,,0,,*63
$PGRMZ,643,F,2*3B
$PFLAU,0,0,0,1,0,,0,,*63
$PGRMZ,643,F,2*3B
$PFLAU,0,0,0,1,0,,0,,*63
$PGRMZ,643,F,2*3B $GPRMC,,V,,,,,,,,,,N*53
$GPGGA,,,,,,0,00,99.99,,,,,,*48
$GPGSA,A,1,,,,,,,,,,,,,99.99,99.99,99.99*30
$PFLAU,0,0,0,1,0,,0,,*63
$PGRMZ,646,F,2*3E
$PFLAU,0,0,0,1,0,,0,,*63
