$PFLAE,A,0,0,OK*1B
$PFLAE,A*33
$PFLAV,A,1.0,7.04,*3E
$PFLAU,0,0,0,1,0,,0,,*63
$PGRMZ,643,F,2*3B
$GPRMC,,V,,,,,,,,,,N*53
$GPGGA,,,,,,0,00,99.99,,,,,,*48
$GPGSA,A,1,,,,,,,,,,,,,99.99,99.99,99.99*30
$PFLAU,0,0,0,1,0,,0,,*63
$PGRMZ,643,F,2*3B
$GPRMC,,V,,,,,,,,,,N*53
$GPGGA,,,,,,0,00,99.99,,,,,,*48
$GPGSA,A,1,,,,,,,,,,,,,99.99,99.99,99.99*30
$PFLAU,0,0,0,1,0,,0,,*63
$PGRMZ,643,F,2*3B
$GPRMC,,V,,,,,,,,,,N*53
$GPGGA,,,,,,0,00,99.99,,,,,,*48
$GPGSA,A,1,,,,,,,,,,,,,99.99,99.99,99.99*30
$PFLAU,0,0,0,1,0,,0,,*63
$PGRMZ,646,F,2*3E
$GPRMC,,V,,,,,,,,,,N*53
$GPGGA,,,,,,0,00,99.99,,,,,,*48
$GPGSA,A,1,,,,,,,,,,,,,99.99,99.99,99.99*30
$PFLAU,0,0,0,1,0,,0,,*63
$PGRMZ,646,F,2*3E
$GPRMC,,V,,,,,,,,,,N*53
$GPGGA,,,,,,0,00,99.99,,,,,,*48
$GPGSA,A,1,,,,,,,,,,,,,99.99,99.99,99.99*30
$PFLAU,0,0,0,1,0,,0,,*63
$PGRMZ,643,F,2*3B
$GPRMC,,V,,,,,,,,,,N*53
$GPGGA,,,,,,0,00,99.99,,,,,,*48
$GPGSA,A,1,,,,,,,,,,,,,99.99,99.99,99.99*30
$PFLAU,0,0,0,1,0,,0,,*63
$PGRMZ,643,F,2*3B
$GPRMC,,V,,,,,,,,,,N*53
$GPGGA,,,,,,0,00,99.99,,,,,,*48
$GPGSA,A,1,,,,,,,,,,,,,99.99,99.99,99.99*30
$PFLAU,0,0,0,1,0,,0,,*63
$PGRMZ,643,F,2*3B
$GPRMC,,V,,,,,,,,,,N*53
$GPGGA,,,,,,0,00,99.99,,,,,,*48
$GPGSA,A,1,,,,,,,,,,,,,99.99,99.99,99.99*30
$PFLAU,0,0,0,1,0,,0,,*63
$PGRMZ,643,F,2*3B
$GPRMC,,V,,,,,,,,,,N*53
$GPGGA,,,,,,0,00,99.99,,,,,,*48
$GPGSA,A,1,,,,,,,,,,,,,99.99,99.99,99.99*30
$PFLAU,0,0,0,1,0,,0,,*63
$PGRMZ,643,F,2*3B
$GPRMC,,V,,,,,,,,,,N*53
$GPGGA,,,,,,0,00,99.99,,,,,,*48
$GPGSA,A,1,,,,,,,,,,,,,99.99,99.99,99.99*30
$PFLAF,A,3*2F
$GPGGA,011601,4852.6000,S,12323.6000,W,1,05,1.6,500.0,M,0.0,M,,*77
$GPRMC,011601,A,4852.6000,S,12323.6000,W,97.2,0.0,250504,,,A*48
$GPGSA,A,3,3,5,6,12,18,,,,,,,,,16,*21
$PFLAU,1,0,2,1,0,,0,,*60
$PGRMZ,1476,F,2*0E
$GPGGA,011602,4852.5719,S,12323.6000,W,1,05,1.6,500.0,M,0.0,M,,*78
$GPRMC,011602,A,4852.5719,S,12323.6000,W,97.2,0.0,250504,,,A*47
$GPGSA,A,3,3,5,6,12,18,,,,,,,,,16,*21
$PFLAU,1,0,2,1,0,,0,,*60
$PGRMZ,1476,F,2*0E
$GPGGA,011603,4852.5433,S,12323.6000,W,1,05,1.6,500.0,M,0.0,M,,*72
$GPRMC,011603,A,4852.5433,S,12323.6000,W,97.2,0.0,250504,,,A*4D
$GPGSA,A,3,3,5,6,12,18,,,,,,,,,16,*21
$PFLAU,1,0,2,1,0,,0,,*60
$PGRMZ,1476,F,2*0E
$GPGGA,011605,4852.5147,S,12323.6000,W,1,05,1.6,500.0,M,0.0,M,,*72
$GPRMC,011605,A,4852.5147,S,12323.6000,W,97.2,0.0,250504,,,A*4D
$GPGSA,A,3,3,5,6,12,18,,,,,,,,,16,*21
$PFLAU,1,0,2,1,0,,0,,*60
$PGRMZ,1476,F,2*0E
$GPGGA,011606,4852.4866,S,12323.6000,W,1,05,1.6,500.0,M,0.0,M,,*7A
$GPRMC,011606,A,4852.4866,S,12323.6000,W,97.2,0.0,250504,,,A*45
$GPGSA,A,3,3,5,6,12,18,,,,,,,,,16,*21
$PFLAU,1,0,2,1,0,,0,,*60
$PGRMZ,1476,F,2*0E
$GPGGA,011607,4852.4580,S,12323.6000,W,1,05,1.6,500.0,M,0.0,M,,*7E
$GPRMC,011607,A,4852.4580,S,12323.6000,W,97.2,0.0,250504,,,A*41
$GPGSA,A,3,3,5,6,12,18,,,,,,,,,16,*21
$PFLAU,1,0,2,1,0,,0,,*60
$PGRMZ,1476,F,2*0E
$GPGGA,011608,4852.4294,S,12323.6000,W,1,05,1.6,500.0,M,0.0,M,,*73
$GPRMC,011608,A,4852.4294,S,12323.6000,W,97.2,0.0,250504,,,A*4C
$GPGSA,A,3,3,5,6,12,18,,,,,,,,,16,*21
$PFLAU,1,0,2,1,0,,0,,*60
$PGRMZ,1476,F,2*0E
$GPGGA,011609,4852.4013,S,12323.6000,W,1,05,1.6,500.0,M,0.0,M,,*7F
$GPRMC,011609,A,4852.4013,S,12323.6000,W,97.2,0.0,250504,,,A*40
$GPGSA,A,3,3,5,6,12,18,,,,,,,,,16,*21
$PFLAU,1,0,2,1,0,,0,,*60
$PGRMZ,1476,F,2*0E
$GPGGA,011610,4852.3727,S,12323.6000,W,1,05,1.6,500.0,M,0.0,M,,*70
$GPRMC,011610,A,4852.3727,S,12323.6000,W,97.2,0.0,250504,,,A*4F
$GPGSA,A,3,3,5,6,12,18,,,,,,,,,16,*21
$PFLAU,1,0,2,1,0,,0,,*60
$PGRMZ,1476,F,2*0E
$GPGGA,011611,4852.3441,S,12323.6000,W,1,05,1.6,500.0,M,0.0,M,,*72
$GPRMC,011611,A,4852.3441,S,12323.6000,W,97.2,0.0,250504,,,A*4D
$GPGSA,A,3,3,5,6,12,18,,,,,,,,,16,*21
$PFLAU,1,0,2,1,0,,0,,*60
$PGRMZ,1476,F,2*0E
$GPGGA,011612,4852.3154,S,12323.6000,W,1,05,1.6,500.0,M,0.0,M,,*70
$GPRMC,011612,A,4852.3154,S,12323.6000,W,97.2,0.0,250504,,,A*4F
$GPGSA,A,3,3,5,6,12,18,,,,,,,,,16,*21
$PFLAU,1,0,2,1,0,,0,,*60
$PGRMZ,1476,F,2*0E
$GPGGA,011613,4852.2874,S,12323.6000,W,1,05,1.6,500.0,M,0.0,M,,*7B
$GPRMC,011613,A,4852.2874,S,12323.6000,W,97.2,0.0,250504,,,A*44
$GPGSA,A,3,3,5,6,12,18,,,,,,,,,16,*21
$PFLAU,1,0,2,1,0,,0,,*60
$PGRMZ,1476,F,2*0E
$GPGGA,011614,4852.2587,S,12323.6000,W,1,05,1.6,500.0,M,0.0,M,,*7D
$GPRMC,011614,A,4852.2587,S,12323.6000,W,97.2,0.0,250504,,,A*42
$GPGSA,A,3,3,5,6,12,18,,,,,,,,,16,*21
$PFLAU,1,0,2,1,0,,0,,*60
$PGRMZ,1476,F,2*0E
$GPGGA,011615,4852.2301,S,12323.6000,W,1,05,1.6,500.0,M,0.0,M,,*74
$GPRMC,011615,A,4852.2301,S,12323.6000,W,97.2,0.0,250504,,,A*4B
$GPGSA,A,3,3,5,6,12,18,,,,,,,,,16,*21
$PFLAU,1,0,2,1,0,,0,,*60
$PGRMZ,1476,F,2*0E
$GPGGA,011616,4852.2020,S,12323.6000,W,1,05,1.6,500.0,M,0.0,M,,*77
$GPRMC,011616,A,4852.2020,S,12323.6000,W,97.2,0.0,250504,,,A*48
$GPGSA,A,3,3,5,6,12,18,,,,,,,,,16,*21
$PFLAU,1,0,2,1,0,,0,,*60
$PGRMZ,1476,F,2*0E
$GPGGA,011617,4852.1734,S,12323.6000,W,1,05,1.6,500.0,M,0.0,M,,*77
$GPRMC,011617,A,4852.1734,S,12323.6000,W,97.2,0.0,250504,,,A*48
$GPGSA,A,3,3,5,6,12,18,,,,,,,,,16,*21
$PFLAU,1,0,2,1,0,,0,,*60
$PGRMZ,1476,F,2*0E
$GPGGA,011618,4852.1448,S,12323.6000,W,1,05,1.6,500.0,M,0.0,M,,*70
$GPRMC,011618,A,4852.1448,S,12323.6000,W,97.2,0.0,250504,,,A*4F
$GPGSA,A,3,3,5,6,12,18,,,,,,,,,16,*21
$PFLAU,1,0,2,1,0,,0,,*60
$PGRMZ,1476,F,2*0E
$GPGGA,011619,4852.1162,S,12323.6000,W,1,05,1.6,500.0,M,0.0,M,,*7C
$GPRMC,011619,A,4852.1162,S,12323.6000,W,97.2,0.0,250504,,,A*43
$GPGSA,A,3,3,5,6,12,18,,,,,,,,,16,*21
$PFLAU,1,0,2,1,0,,0,,*60
$PGRMZ,1476,F,2*0E
$GPGGA,011620,4852.0881,S,12323.6000,W,1,05,1.6,500.0,M,0.0,M,,*73
$GPRMC,011620,A,4852.0881,S,12323.6000,W,97.2,0.0,250504,,,A*4C
$GPGSA,A,3,3,5,6,12,18,,,,,,,,,16,*21
$PFLAU,1,0,2,1,0,,0,,*60
$PGRMZ,1476,F,2*0E
$GPGGA,011621,4852.0595,S,12323.6000,W,1,05,1.6,500.0,M,0.0,M,,*7A
$GPRMC,011621,A,4852.0595,S,12323.6000,W,97.2,0.0,250504,,,A*45
$GPGSA,A,3,3,5,6,12,18,,,,,,,,,16,*21
$PFLAU,1,0,2,1,0,,0,,*60
$PGRMZ,1476,F,2*0E
$GPGGA,011622,4852.0309,S,12323.6000,W,1,05,1.6,500.0,M,0.0,M,,*7A
$GPRMC,011622,A,4852.0309,S,12323.6000,W,97.2,0.0,250504,,,A*45
$GPGSA,A,3,3,5,6,12,18,,,,,,,,,16,*21
$PFLAU,1,0,2,1,0,,0,,*60
$PGRMZ,1476,F,2*0E
$GPGGA,011623,4852.0028,S,12323.6000,W,1,05,1.6,500.0,M,0.0,M,,*7B
$GPRMC,011623,A,4852.0028,S,12323.6000,W,97.2,0.0,250504,,,A*44
$GPGSA,A,3,3,5,6,12,18,,,,,,,,,16,*21
$PFLAU,1,0,2,1,0,,0,,*60
$PGRMZ,1476,F,2*0E
$GPGGA,011625,4851.9742,S,12323.6000,W,1,05,1.6,500.0,M,0.0,M,,*7C
$GPRMC,011625,A,4851.9742,S,12323.6000,W,97.2,0.0,250504,,,A*43
$GPGSA,A,3,3,5,6,12,18,,,,,,,,,16,*21
$PFLAU,1,0,2,1,0,,0,,*60
$PGRMZ,1476,F,2*0E
$GPGGA,011626,4851.9455,S,12323.6000,W,1,05,1.6,500.0,M,0.0,M,,*7A
$GPRMC,011626,A,4851.9455,S,12323.6000,W,97.2,0.0,250504,,,A*45
$GPGSA,A,3,3,5,6,12,18,,,,,,,,,16,*21
$PFLAU,1,0,2,1,0,,0,,*60
$PGRMZ,1476,F,2*0E
$GPGGA,011627,4851.9175,S,12323.6000,W,1,05,1.6,500.0,M,0.0,M,,*7C
$GPRMC,011627,A,4851.9175,S,12323.6000,W,97.2,0.0,250504,,,A*43
$GPGSA,A,3,3,5,6,12,18,,,,,,,,,16,*21
$PFLAU,1,0,2,1,0,,0,,*60
$PGRMZ,1476,F,2*0E
$GPGGA,011628,4851.8888,S,12323.6000,W,1,05,1.6,500.0,M,0.0,M,,*79
$GPRMC,011628,A,4851.8888,S,12323.6000,W,97.2,0.0,250504,,,A*46
$GPGSA,A,3,3,5,6,12,18,,,,,,,,,16,*21
$PFLAU,1,0,2,1,0,,0,,*60
$PGRMZ,1476,F,2*0E
$GPGGA,011629,4851.8602,S,12323.6000,W,1,05,1.6,500.0,M,0.0,M,,*74
$GPRMC,011629,A,4851.8602,S,12323.6000,W,97.2,0.0,250504,,,A*4B
$GPGSA,A,3,3,5,6,12,18,,,,,,,,,16,*21
$GPGGA,011630,4851.8321,S,12323.6000,W,1,05,1.6,500.0,M,0.0,M,,*78
$GPRMC,011630,A,4851.8321,S,12323.6000,W,97.2,0.0,250504,,,A*47
$GPGSA,A,3,3,5,6,12,18,,,,,,,,,16,*21
$PFLAU,1,0,2,1,0,,0,,*60
$PGRMZ,1476,F,2*0E
$GPGGA,011631,4851.8035,S,12323.6000,W,1,05,1.6,500.0,M,0.0,M,,*7F
$GPRMC,011631,A,4851.8035,S,12323.6000,W,97.2,0.0,250504,,,A*40
$GPGSA,A,3,3,5,6,12,18,,,,,,,,,16,*21
$PFLAU,1,0,2,1,0,,0,,*60
$PGRMZ,1476,F,2*0E
$PFLAU,0,0,0,1,0,,0,,*63
$PGRMZ,643,F,2*3B
$PFLAU,0,0,0,1,0,,0,,*63
$PGRMZ,643,F,2*3B
$PFLAU,0,0,0,1,0,,0,,*63
$PGRMZ,643,F,2*3B
$GPRMC,,V,,,,,,,,,,N*53
$GPGGA,,,,,,0,00,99.99,,,,,,*48
$GPGSA,A,1,,,,,,,,,,,,,99.99,99.99,99.99*30
$PFLAU,0,0,0,1,0,,0,,*63
$PGRMZ,646,F,2*3E
$PFLAU,0,0,0,1,0,,0,,*63
$PGRMZ,643,F,2*3B
$GPRMC,,V,,,,,,,,,,N*53
$GPGGA,,,,,,0,00,99.99,,,,,,*48
$GPGSA,A,1,,,,,,,,,,,,,99.99,99.99,99.99*30
$PFLAU,0,0,0,1,0,,0,,*63
$PGRMZ,646,F,2*3E $GPRMC,,V,,,,,,,,,,N*53
$GPGGA,,,,,,0,00,99.99,,,,,,*48
$GPGSA,A,1,,,,,,,,,,,,,99.99,99.99,99.99*30
$PFLAU,0,0,0,1,0,,0,,*63
$PGRMZ,643,F,2*3B
$GPRMC,,V,,,,,,,,,,N*53
$GPGGA,,,,,,0,00,99.99,,,,,,*48
$GPGSA,A,1,,,,,,,,,,,,,99.99,99.99,99.99*30
$PFLAU,0,0,0,1,0,,0,,*63
$PGRMZ,643,F,2*3B
$GPRMC,,V,,,,,,,,,,N*53
$GPGGA,,,,,,0,00,99.99,,,,,,*48
$GPGSA,A,1,,,,,,,,,,,,,99.99,99.99,99.99*30
$PFLAU,0,0,0,1,0,,0,,*63
$PGRMZ,643,F,2*3B
$GPRMC,,V,,,,,,,,,,N*53
$GPGGA,,,,,,0,00,99.99,,,,,,*48
$GPGSA,A,1,,,,,,,,,,,,,99.99,99.99,99.99*30
$PFLAU,0,0,0,1,0,,0,,*63
$PGRMZ,646,F,2*3E
$GPRMC,,V,,,,,,,,,,N*53
$GPGGA,,,,,,0,00,99.99,,,,,,*48
$GPGSA,A,1,,,,,,,,,,,,,99.99,99.99,99.99*30
