$PFLAA,0,-1540,-1020,-1126,1,39103C!FJLKN,93,0,33,4.9,8*63
$PFLAU,11,1,2,1,0,,0,,,*7C
$GPGSA,A,3,,,,,,,,,,,,,1.0,1.0,1.0*33
$PFLAA,0,-40770,-41860,8108,1,392AEB,101,0,233,0.0,0*2B
$GPRMC,134749.60,A,4857.88170,N,00705.83929,E,35.9,270.6,281224,,,D*61
$GPGGA,134749.60,4857.88170,N,00705.83929,E,2,25,1.00,1452.0,M,47.2,M,,*63
$PGRMZ,4395,f,3*20
$GPGSA,A,3,,,,,,,,,,,,,1.0,1.0,1.0*33
$PFLAA,0,-1542,-969,-1121,1,39103C!FJLKN,93,0,33,4.9,8*53
$PFLAU,11,1,2,1,0,,0,,,*7C
$PFLAA,0,-40815,-41616,8109,1,392AEB,101,0,233,0.0,0*29
$GPRMC,134750.60,A,4857.88193,N,00705.82413,E,36.0,270.2,281224,,,D*6F
$GPGGA,134750.60,4857.88193,N,00705.82413,E,2,25,1.00,1451.7,M,47.2,M,,*67
$PGRMZ,4394,f,3*21
$GPGSA,A,3,,,,,,,,,,,,,1.0,1.0,1.0*33
$PFLAA,0,-1544,-917,-1141,1,39103C!FJLKN,92,0,33,4.7,8*55
$PFLAU,10,1,2,1,0,,0,,,*7D
$PFLAA,0,-40859,-41369,8109,1,392AEB,101,0,233,0.0,0*2C
$GPRMC,134751.60,A,4857.88193,N,00705.80896,E,36.0,270.1,281224,,,D*6E
$GPGGA,134751.60,4857.88193,N,00705.80896,E,2,25,1.00,1451.5,M,47.2,M,,*67
$PGRMZ,4393,f,3*26
$PFLAA,0,-1546,-829,-1133,1,39103C!FJLKN,92,0,33,4.9,8*50
$GPGSA,A,3,,,,,,,,,,,,,1.0,1.0,1.0*33
$PFLAA,0,-40904,-41122,8109,1,392AEB,101,0,233,0.0,0*28
$PFLAU,9,1,2,1,0,,0,,,*45
$GPRMC,134752.60,A,4857.88193,N,00705.79380,E,35.9,270.3,281224,,,D*6F
$GPGGA,134752.60,4857.88193,N,00705.79380,E,2,25,1.00,1451.5,M,47.2,M,,*6E
$PGRMZ,4392,f,3*27
$GPGSA,A,3,,,,,,,,,,,,,1.0,1.0,1.0*33
$PFLAA,0,-1546,-773,-1125,1,39103C!FJLKN,92,0,33,5.2,8*5D
$PFLAA,0,-40949,-40875,8109,1,392AEB,101,0,233,0.0,0*2B
$PFLAU,9,1,2,1,0,,0,,,*45
$GPRMC,134753.60,A,4857.88193,N,00705.77869,E,35.8,270.4,281224,,,D*6A
$GPGGA,134753.60,4857.88193,N,00705.77869,E,2,25,1.00,1451.4,M,47.2,M,,*6C
$PGRMZ,4392,f,3*27
$GPGSA,A,3,,,,,,,,,,,,,1.0,1.0,1.0*33
$PFLAA,0,-1549,-759,-1100,1,39103C!FJLKN,92,0,34,5.9,8*51
$PFLAA,0,-40993,-40628,8110,1,392AEB,101,0,233,0.0,0*22
$PFLAU,9,1,2,1,0,,0,,,*45
$GPRMC,134754.60,A,4857.88216,N,00705.76359,E,35.8,270.4,281224,,,D*6A
$GPGGA,134754.60,4857.88216,N,00705.76359,E,2,25,1.00,1451.3,M,47.2,M,,*6B
$PGRMZ,4391,f,3*24
$PFLAA,0,-1548,-669,-1117,1,39103C!FJLKN,92,0,35,5.5,8*59
$PFLAU,9,1,2,1,0,,0,,,*45
$GPGSA,A,3,,,,,,,,,,,,,1.0,1.0,1.0*33
$PFLAA,0,-41038,-40381,8110,1,392AEB,101,0,233,0.0,0*2D
$GPRMC,134755.60,A,4857.88216,N,00705.74857,E,35.7,269.8,281224,,,D*67
$GPGGA,134755.60,4857.88216,N,00705.74857,E,2,25,1.00,1451.1,M,47.2,M,,*6F
$PGRMZ,4391,f,3*24
$PFLAA,0,-1551,-653,-1109,1,39103C!FJLKN,92,0,36,4.9,8*59
$GPGSA,A,3,,,,,,,,,,,,,1.0,1.0,1.0*33
$PFLAA,0,-41083,-40134,8110,1,392AEB,101,0,233,0.0,0*21
$PFLAU,10,1,2,1,0,,0,,,*7D
$GPRMC,134756.60,A,4857.88193,N,00705.73352,E,35.7,269.3,281224,,,D*68
$GPGGA,134756.60,4857.88193,N,00705.73352,E,2,25,1.00,1450.9,M,47.2,M,,*62
$PGRMZ,4390,f,3*25
$GPGSA,A,3,,,,,,,,,,,,,1.0,1.0,1.0*33
$PFLAA,0,-1548,-576,-1109,1,39103C!FJLKN,92,0,36,4.9,8*55
$PFLAU,10,1,2,1,0,,0,,,*7D
$PFLAA,0,-41127,-39888,8110,1,392AEB,101,0,233,0.0,0*2E
$GPRMC,134757.60,A,4857.88193,N,00705.71847,E,35.7,268.8,281224,,,D*6E
$GPGGA,134757.60,4857.88193,N,00705.71847,E,2,25,1.00,1450.7,M,47.2,M,,*60
$PGRMZ,4390,f,3*25
$GPGSA,A,3,,,,,,,,,,,,,1.0,1.0,1.0*33
$PFLAA,0,-1552,-544,-1082,1,39103C!FJLKN,92,0,38,5.2,8*59
$PFLAA,0,-41171,-39641,8110,1,392AEB,101,0,233,0.0,0*26
$PFLAU,10,1,2,1,0,,0,,,*7D
$GPRMC,134758.60,A,4857.88170,N,00705.70345,E,35.8,268.8,281224,,,D*6B
$GPGGA,134758.60,4857.88170,N,00705.70345,E,2,25,1.00,1450.5,M,47.2,M,,*68
$PGRMZ,4389,f,3*2D
$PFLAA,0,-1550,-442,-1094,1,39103C!FJLKN,91,0,38,3.5,8*59
$GPGSA,A,3,,,,,,,,,,,,,1.0,1.0,1.0*33
$PFLAU,10,1,2,1,0,,0,,,*7D
$PFLAA,0,-41215,-39394,8110,1,392AEB,101,0,233,0.0,0*2A
$GPRMC,134759.60,A,4857.88147,N,00705.68837,E,35.7,268.8,281224,,,D*66
$GPGGA,134759.60,4857.88147,N,00705.68837,E,2,25,1.00,1450.4,M,47.2,M,,*6B
$PGRMZ,4389,f,3*2D
$GPGSA,A,3,,,,,,,,,,,,,1.0,1.0,1.0*33
$PFLAA,0,-41260,-39145,8110,1,392AEB,101,0,233,0.0,0*26
$PFLAA,0,-1553,-431,-1094,1,39103C!FJLKN,91,0,40,4.2,8*51
$PFLAU,9,1,2,1,0,,0,,,*45
$GPRMC,134800.60,A,4857.88124,N,00705.67332,E,35.7,268.9,281224,,,D*60
$GPGGA,134800.60,4857.88124,N,00705.67332,E,2,25,1.00,1450.3,M,47.2,M,,*6B
$PGRMZ,4389,f,3*2D
$GPGSA,A,3,,,,,,,,,,,,,1.0,1.0,1.0*33
$PFLAA,0,-1549,-326,-1093,1,39103C!FJLKN,91,0,42,3.3,8*58
$PFLAU,9,1,2,1,0,,0,,,*45
$GPRMC,134801.60,A,4857.88101,N,00705.65827,E,35.7,268.9,281224,,,D*6B
$GPGGA,134801.60,4857.88101,N,00705.65827,E,2,25,1.00,1450.3,M,47.2,M,,*60
$PGRMZ,4388,f,3*2C
$GPGSA,A,3,,,,,,,,,,,,,1.0,1.0,1.0*33
$PFLAA,0,-1553,-313,-1070,1,39103C!FJLKN,90,0,42,3.3,8*59
$PFLAU,9,1,2,1,0,,0,,,*45
$GPRMC,134802.60,A,4857.88101,N,00705.64325,E,35.6,269.0,281224,,,D*69
$GPGGA,134802.60,4857.88101,N,00705.64325,E,2,25,1.00,1450.3,M,47.2,M,,*6B
$PGRMZ,4388,f,3*2C
$PFLAA,0,-1551,-189,-1086,1,39103C!FJLKN,90,0,43,3.3,8*52
$PFLAU,9,1,2,1,0,,0,,,*45
$GPGSA,A,3,,,,,,,,,,,,,1.0,1.0,1.0*33
$GPRMC,134803.60,A,4857.88078,N,00705.62826,E,35.6,268.9,281224,,,D*61
$GPGGA,134803.60,4857.88078,N,00705.62826,E,2,25,1.00,1450.2,M,47.2,M,,*6A
$PGRMZ,4387,f,3*23
$PFLAA,0,-1553,-190,-1064,1,39103C!FJLKN,89,65535,43,3.6,8*59
$PFLAU,9,1,2,1,0,,0,,,*45
$GPGSA,A,3,,,,,,,,,,,,,1.0,1.0,1.0*33
$GPRMC,134804.60,A,4857.88055,N,00705.61324,E,35.6,268.9,281224,,,D*63
$GPGGA,134804.60,4857.88055,N,00705.61324,E,2,25,1.00,1450.1,M,47.2,M,,*6B
$PGRMZ,4387,f,3*23
$GPGSA,A,3,,,,,,,,,,,,,1.0,1.0,1.0*33
$PFLAA,0,-1545,-65,-1078,1,39103C!FJLKN,87,65535,45,3.9,8*6F
$PFLAU,9,1,2,1,0,,0,,,*45
$GPRMC,134805.60,A,4857.88033,N,00705.59825,E,35.6,268.8,281224,,,D*62
$GPGGA,134805.60,4857.88033,N,00705.59825,E,2,25,1.00,1450.0,M,47.2,M,,*6A
$PGRMZ,4387,f,3*23
$PFLAA,0,-1549,-65,-1058,1,39103C!FJLKN,85,65535,45,3.9,8*63
$PFLAU,9,1,2,1,0,,0,,,*45
$GPGSA,A,3,,,,,,,,,,,,,1.0,1.0,1.0*33
$GPRMC,134806.60,A,4857.88010,N,00705.58323,E,35.7,268.5,281224,,,D*60
$GPGGA,134806.60,4857.88010,N,00705.58323,E,2,25,1.00,1449.9,M,47.2,M,,*65
$PGRMZ,4386,f,3*22
$GPGSA,A,3,,,,,,,,,,,,,1.0,1.0,1.0*33
$PFLAA,0,-1539,43,-1070,1,39103C!FJLKN,83,65535,46,4.2,8*4E
$PFLAU,9,1,2,1,0,,0,,,*45
$GPRMC,134807.60,A,4857.87987,N,00705.56821,E,35.6,268.3,281224,,,D*69
$GPGGA,134807.60,4857.87987,N,00705.56821,E,2,25,1.00,1449.8,M,47.2,M,,*6A
$PGRMZ,4386,f,3*22
$PFLAA,0,-1534,112,-1062,1,39103C!FJLKN,80,65534,46,4.6,8*73
$PFLAU,9,1,2,1,0,,0,,,*45
$GPGSA,A,3,,,,,,,,,,,,,1.0,1.0,1.0*33
$GPRMC,134808.60,A,4857.87964,N,00705.55322,E,35.5,268.2,281224,,,D*62
$GPGGA,134808.60,4857.87964,N,00705.55322,E,2,25,1.00,1449.8,M,47.2,M,,*63
$PGRMZ,4386,f,3*22
$GPGSA,A,3,,,,,,,,,,,,,1.0,1.0,1.0*33
$PFLAA,0,-1526,178,-1055,1,39103C!FJLKN,79,65534,46,4.9,8*71
$PFLAU,9,1,2,1,0,,0,,,*45
$GPRMC,134809.60,A,4857.87918,N,00705.53823,E,35.5,268.7,281224,,,D*61
$GPGGA,134809.60,4857.87918,N,00705.53823,E,2,25,1.00,1449.8,M,47.2,M,,*65
$PGRMZ,4385,f,3*21
$GPGSA,A,3,,,,,,,,,,,,,1.0,1.0,1.0*33
$PFLAA,0,-1522,190,-1039,1,39103C!FJLKN,76,65534,46,5.2,8*7C
$PFLAU,9,1,2,1,0,,0,,,*45
$GPRMC,134810.60,A,4857.87918,N,00705.52326,E,35.4,270.2,281224,,,D*6B
$GPGGA,134810.60,4857.87918,N,00705.52326,E,2,25,1.00,1449.9,M,47.2,M,,*63
$PGRMZ,4385,f,3*21
$PFLAA,0,-1497,321,-1047,1,39103C!FJLKN,74,65534,46,5.5,8*77
$PFLAU,9,1,2,1,0,,0,,,*45
$GPGSA,A,3,,,,,,,,,,,,,1.0,1.0,1.0*33
$GPRMC,134811.60,A,4857.87941,N,00705.50838,E,35.2,272.8,281224,,,D*6E
$GPGGA,134811.60,4857.87941,N,00705.50838,E,2,25,1.00,1450.2,M,47.2,M,,*6B
$PGRMZ,4385,f,3*21
$PFLAA,0,-1479,386,-1039,1,39103C!FJLKN,71,65534,47,5.5,8*77
$GPGSA,A,3,,,,,,,,,,,,,1.0,1.0,1.0*33
$PFLAU,10,1,2,1,0,,0,,,*7D
$GPRMC,134812.60,A,4857.88010,N,00705.49362,E,35.0,276.6,281224,,,D*6B
$GPGGA,134812.60,4857.88010,N,00705.49362,E,2,25,1.00,1450.5,M,47.2,M,,*61
$PGRMZ,4386,f,3*22
$GPGSA,A,3,,,,,,,,,,,,,1.0,1.0,1.0*33
$PFLAA,0,-1485,381,-1024,1,39103C!FJLKN,71,65534,47,5.3,8*79
$PFLAU,10,1,2,1,0,,0,,,*7D
$GPRMC,134813.60,A,4857.88170,N,00705.47897,E,35.2,280.9,281224,,,D*66
$GPGGA,134813.60,4857.88170,N,00705.47897,E,2,25,1.00,1450.8,M,47.2,M,,*65
$PGRMZ,4386,f,3*22
$PFLAA,0,-1488,399,-1032,1,39103C!FJLKN,66,65534,48,5.9,8*79
$PFLAU,10,1,2,1,0,,0,,,*7D
$GPGSA,A,3,,,,,,,,,,,,,1.0,1.0,1.0*33
$GPRMC,134814.60,A,4857.88376,N,00705.46438,E,35.7,284.6,281224,,,D*63
$GPGGA,134814.60,4857.88376,N,00705.46438,E,2,25,1.00,1450.7,M,47.2,M,,*61
$PGRMZ,4387,f,3*23
$GPGSA,A,3,,,,,,,,,,,,,1.0,1.0,1.0*33
$PFLAA,0,-1434,568,-1024,1,39103C!FJLKN,64,65534,48,5.5,8*7F
$PFLAU,10,1,2,1,0,,0,,,*7D
$GPRMC,134815.60,A,4857.88651,N,00705.44982,E,36.1,287.6,281224,,,D*6A
$GPGGA,134815.60,4857.88651,N,00705.44982,E,2,26,1.00,1450.5,M,47.2,M,,*6F
$PGRMZ,4387,f,3*23
$GPGSA,A,3,,,,,,,,,,,,,1.0,1.0,1.0*33
$PFLAA,0,-1429,606,-1017,1,39103C!FJLKN,63,65534,48,5.5,8*7F
$PFLAU,10,1,2,1,0,,0,,,*7D
$GPRMC,134816.60,A,4857.88971,N,00705.43529,E,36.6,290.0,281224,,,D*69
$GPGGA,134816.60,4857.88971,N,00705.43529,E,2,26,1.00,1450.2,M,47.2,M,,*6C
$PGRMZ,4386,f,3*22
$GPGSA,A,3,,,,,,,,,,,,,1.0,1.0,1.0*33
$PFLAA,0,-1426,629,-1003,1,39103C!FJLKN,63,65535,49,5.3,8*7E
$PFLAU,10,1,2,1,0,,0,,,*7D
$GPRMC,134817.60,A,4857.89337,N,00705.42084,E,36.8,292.9,281224,,,D*67
$GPGGA,134817.60,4857.89337,N,00705.42084,E,2,26,1.00,1450.1,M,47.2,M,,*64
$PGRMZ,4386,f,3*22
$PFLAA,0,-1386,744,-1009,1,39103C!FJLKN,60,65535,49,5.9,8*7A
$GPGSA,A,3,,,,,,,,,,,,,1.0,1.0,1.0*33
$PFLAU,10,1,2,1,0,,0,,,*7D
$GPRMC,134818.60,A,4857.89772,N,00705.40668,E,36.9,296.7,281224,,,D*60
$GPGGA,134818.60,4857.89772,N,00705.40668,E,2,26,1.00,1450.1,M,47.2,M,,*68
$PGRMZ,4386,f,3*22
$GPGSA,A,3,,,,,,,,,,,,,1.0,1.0,1.0*33
$PFLAA,0,-1393,751,-994,1,39103C!FJLKN,59,65535,49,4.4,8*40
$PFLAU,11,1,2,1,0,,0,,,*7C
$GPRMC,134819.60,A,4857.90253,N,00705.39297,E,37.0,300.8,281224,,,D*6C
$GPGGA,134819.60,4857.90253,N,00705.39297,E,2,25,1.00,1450.1,M,47.2,M,,*6E
$PGRMZ,4385,f,3*21
$GPGSA,A,3,,,,,,,,,,,,,1.0,1.0,1.0*33
$PFLAA,0,-1351,853,-993,1,39103C!FJLKN,56,65535,50,5.2,8*44
$PFLAU,11,1,2,1,0,,0,,,*7C
$GPRMC,134820.60,A,4857.90802,N,00705.37981,E,37.1,304.5,281224,,,D*62
$GPGGA,134820.60,4857.90802,N,00705.37981,E,2,25,1.00,1450.1,M,47.2,M,,*68
$PGRMZ,4385,f,3*21
$PFLAA,0,-1347,897,-993,1,39103C!FJLKN,54,65535,51,4.9,8*42
$PFLAU,11,1,2,1,0,,0,,,*7C
$GPGSA,A,3,,,,,,,,,,,,,1.0,1.0,1.0*33
$PFLAA,0,-42258,-34017,8112,1,392AEB,101,0,233,0.0,0*27
$GPRMC,134821.60,A,4857.91420,N,00705.36716,E,37.1,307.3,281224,,,D*6A
$GPGGA,134821.60,4857.91420,N,00705.36716,E,2,25,1.00,1450.1,M,47.2,M,,*65
$PGRMZ,4385,f,3*21
$GPGSA,A,3,,,,,,,,,,,,,1.0,1.0,1.0*33
$PFLAA,0,-1315,969,-986,1,39103C!FJLKN,53,65535,51,4.9,8*46
$PFLAA,0,-42269,-34001,8112,1,392AEB,101,0,233,0.0,0*22
$PFLAU,11,1,2,1,0,,0,,,*7C
$GPRMC,134822.60,A,4857.92038,N,00705.35492,E,37.1,309.7,281224,,,D*61
$GPGGA,134822.60,4857.92038,N,00705.35492,E,2,25,1.00,1450.1,M,47.2,M,,*64
$PGRMZ,4385,f,3*21
$GPGSA,A,3,,,,,,,,,,,,,1.0,1.0,1.0*33
$PFLAA,0,-1327,984,-986,1,39103C!FJLKN,51,65535,51,4.9,7*49
$PFLAU,11,1,2,1,0,,0,,,*7C
$GPRMC,134823.60,A,4857.92725,N,00705.34310,E,37.2,312.3,281224,,,D*6A
$GPGGA,134823.60,4857.92725,N,00705.34310,E,2,25,1.00,1450.1,M,47.2,M,,*62
$PGRMZ,4385,f,3*21
$GPGSA,A,3,,,,,,,,,,,,,1.0,1.0,1.0*33
$PFLAA,0,-1339,998,-986,1,39103C!FJLKN,49,65535,51,4.9,7*42
$PFLAA,0,-42427,-33286,8112,1,392AEB,101,0,233,0.0,0*24
$PFLAU,11,1,2,1,0,,0,,,*7C
$GPRMC,134824.60,A,4857.93434,N,00705.33183,E,37.2,315.3,281224,,,D*67
$GPGGA,134824.60,4857.93434,N,00705.33183,E,2,25,1.00,1450.0,M,47.2,M,,*69
$PGRMZ,4385,f,3*21
$GPGSA,A,3,,,,,,,,,,,,,1.0,1.0,1.0*33
$PFLAA,0,-1252,1128,-971,1,39103C!FJLKN,44,65535,51,4.9,7*79
$PFLAA,0,-42485,-33044,8112,1,392AEB,101,0,233,0.0,0*20
$PFLAU,11,1,2,1,0,,0,,,*7C
$GPRMC,134825.60,A,4857.94167,N,00705.32116,E,37.2,318.5,281224,,,D*64
$GPGGA,134825.60,4857.94167,N,00705.32116,E,2,25,1.00,1449.8,M,47.2,M,,*61
$PGRMZ,4384,f,3*20
$PFLAA,0,-1222,1178,-970,1,39103C!FJLKN,43,65535,52,5.2,7*74
$GPGSA,A,3,,,,,,,,,,,,,1.0,1.0,1.0*33
$PFLAA,0,-8372,-32102,4340,1,4D22BC!RYR71VG,26,0,181,-4.9,0*64
$PFLAA,0,-42543,-32803,8112,1,392AEB,101,0,233,0.0,0*21
$PFLAU,10,1,2,1,0,,0,,,*7D
$GPRMC,134826.60,A,4857.94968,N,00705.31106,E,37.3,321.2,281224,,,D*6E
$GPGGA,134826.60,4857.94968,N,00705.31106,E,2,25,1.00,1449.6,M,47.2,M,,*69
$PGRMZ,4384,f,3*20
$PFLAA,0,-1236,1190,-970,1,39103C!FJLKN,41,65535,52,5.2,7*75
$PFLAU,10,1,2,1,0,,0,,,*7D
$GPGSA,A,3,,,,,,,,,,,,,1.0,1.0,1.0*33
$PFLAA,0,-8387,-32090,4340,1,4D22BC!RYR71VG,26,0,181,-4.9,0*64
$PFLAA,0,-42602,-32562,8112,1,392AEB,101,0,233,0.0,0*2D
$GPRMC,134827.60,A,4857.95792,N,00705.30148,E,37.4,323.4,281224,,,D*6D
$GPGGA,134827.60,4857.95792,N,00705.30148,E,2,26,1.00,1449.5,M,47.2,M,,*69
$PGRMZ,4383,f,3*27
$GPGSA,A,3,,,,,,,,,,,,,1.0,1.0,1.0*33
$PFLAA,0,-8094,-31930,4333,1,4D22BC!RYR71VG,26,0,181,-4.9,0*61
$PFLAA,0,-1174,1271,-955,1,39103C!FJLKN,39,65535,52,5.2,7*74
$PFLAA,0,-42662,-32322,8112,1,392AEB,101,0,233,0.0,0*29
$PFLAU,12,1,2,1,0,,0,,,*7F
$PFLAU,12,1,2,1,0,,0,,,*7F
$GPRMC,134829.60,A,4857.97462,N,00705.28345,E,37.2,326.3,281224,,,D*6F
$GPGGA,134829.60,4857.97462,N,00705.28345,E,2,27,1.00,1449.4,M,47.2,M,,*6F
$PGRMZ,4382,f,3*26
$GPGSA,A,3,,,,,,,,,,,,,1.0,1.0,1.0*33
$PFLAA,0,-1102,1372,-939,1,39103C!FJLKN,36,65535,52,5.5,7*75
$PFLAU,12,1,2,1,0,,0,,,*7F
$PFLAA,0,-7794,-31743,4325,1,4D22BC!RYR71VG,26,0,181,-4.6,0*6B
$PFLAA,0,-42782,-31843,8112,1,392AEB,101,0,233,0.0,0*29
$PFLAA,0,13895,,-413,1,39299C!FJKLR,,,,0.0,8*4F
$GPRMC,134830.60,A,4857.98332,N,00705.27498,E,37.1,328.1,281224,,,D*6D
$GPGGA,134830.60,4857.98332,N,00705.27498,E,2,27,1.00,1449.3,M,47.2,M,,*65
$PGRMZ,4382,f,3*26
$PFLAA,0,-1102,1393,-939,1,39103C!FJLKN,34,65535,52,5.5,7*78
$GPGSA,A,3,,,,,,,,,,,,,1.0,1.0,1.0*33
$PFLAA,0,-7810,-31732,4325,1,4D22BC!RYR71VG,26,0,181,-4.6,0*6E
$PFLAU,12,1,2,1,0,,0,,,*7F
$PFLAA,0,-42843,-31604,8112,1,392AEB,101,0,233,0.0,0*26
$PFLAA,0,12583,,-413,1,39299C!FJKLR,,,,0.0,8*44
$GPRMC,134831.60,A,4857.99202,N,00705.26697,E,36.9,330.0,281224,,,D*62
$GPGGA,134831.60,4857.99202,N,00705.26697,E,2,27,1.00,1449.2,M,47.2,M,,*6A
$PGRMZ,4382,f,3*26
$GPGSA,A,3,,,,,,,,,,,,,1.0,1.0,1.0*33
$PFLAA,0,-7826,-31723,4318,1,4D22BC!RYR71VG,26,0,181,-4.6,0*65
$PFLAA,0,-42904,-31366,8113,1,392AEB,101,0,233,0.0,0*24
$GPRMC,134832.60,A,4858.00095,N,00705.25945,E,36.9,331.9,281224,,,D*69
$GPGGA,134832.60,4858.00095,N,00705.25945,E,2,27,1.00,1449.0,M,47.2,M,,*6B
$PGRMZ,4382,f,3*26
$GPGSA,A,3,,,,,,,,,,,,,1.0,1.0,1.0*33
$PFLAA,0,-42965,-31128,8113,1,392AEB,101,0,233,0.0,0*2B
$PFLAA,0,-7403,-31498,4305,1,4D22BC!RYR71VG,26,0,181,-4.6,0*61
$PFLAA,0,-1135,1411,-939,1,39103C!FJLKN,34,65535,52,5.5,7*71
$PFLAU,11,1,2,1,0,,0,,,*7C
$PFLAA,0,10051,,-413,1,39299C!FJKLR,,,,0.0,8*4C
$GPRMC,134833.60,A,4858.01010,N,00705.25235,E,36.9,333.5,281224,,,D*66
$GPGGA,134833.60,4858.01010,N,00705.25235,E,2,27,1.00,1448.8,M,47.2,M,,*63
$PGRMZ,4381,f,3*25
$GPGSA,A,3,,,,,,,,,,,,,1.0,1.0,1.0*33
$PFLAA,0,-1048,1480,-920,1,39103C!FJLKN,30,65535,52,5.9,8*7D
$PFLAU,11,1,2,1,0,,0,,,*7C
$PFLAA,0,-7201,-31386,4310,1,4D22BC!RYR71VG,26,0,181,-4.6,0*69
$PFLAA,0,-43026,-30891,8113,1,392AEB,101,0,233,0.0,0*2E
$PFLAA,0,9964,,-413,1,39299C!FJKLR,,,,0.0,8*7B
$GPRMC,134834.60,A,4858.01926,N,00705.24557,E,36.9,334.9,281224,,,D*64
$GPGGA,134834.60,4858.01926,N,00705.24557,E,2,27,1.00,1448.6,M,47.2,M,,*64
$PGRMZ,4381,f,3*25
$PFLAA,0,-1065,1488,-920,1,39103C!FJLKN,28,65535,52,5.9,8*73
$GPGSA,A,3,,,,,,,,,,,,,1.0,1.0,1.0*33
$PFLAA,0,-7218,-31378,4303,1,4D22BC!RYR71VG,26,0,181,-4.6,0*62
$PFLAA,0,-43088,-30654,8113,1,392AEB,101,0,233,0.0,0*2D
$PFLAU,12,1,2,1,0,,0,,,*7F
$PFLAA,0,12052,,-413,1,39299C!FJKLR,,,,0.0,8*4D
$GPRMC,134835.60,A,4858.02864,N,00705.23913,E,36.8,336.1,281224,,,D*61
$GPGGA,134835.60,4858.02864,N,00705.23913,E,2,27,1.00,1448.5,M,47.2,M,,*69
$PGRMZ,4381,f,3*25
$GPGSA,A,3,,,,,,,,,,,,,1.0,1.0,1.0*33
$PFLAA,0,-922,1584,-908,1,39103C!FJLKN,25,65535,53,6.2,8*4B
$PFLAA,0,-43150,-30416,8113,1,392AEB,101,0,233,0.0,0*2D
$PFLAU,11,1,2,1,0,,0,,,*7C
$PFLAA,0,-7236,-31370,4295,1,4D22BC!RYR71VG,26,0,181,-4.6,0*68
$PFLAA,0,12052,,-413,1,39299C!FJKLR,,,,0.0,8*4D
$GPRMC,134836.60,A,4858.03802,N,00705.23307,E,36.7,337.6,281224,,,D*65
$GPGGA,134836.60,4858.03802,N,00705.23307,E,2,27,1.00,1448.5,M,47.2,M,,*64
$PGRMZ,4380,f,3*24
$GPGSA,A,3,,,,,,,,,,,,,1.0,1.0,1.0*33
$PFLAA,0,-6816,-31149,4294,1,4D22BC!RYR71VG,26,0,181,-4.6,0*68
$PFLAA,0,-911,1605,-900,1,39103C!FJLKN,23,65535,53,5.9,7*48
$PFLAU,11,1,2,1,0,,0,,,*7C
$PFLAA,0,-43212,-30180,8113,1,392AEB,101,0,233,0.0,0*22
$PFLAA,0,12203,,-413,1,39299C!FJKLR,,,,0.0,8*4B
$GPRMC,134837.60,A,4858.04741,N,00705.22740,E,36.5,339.3,281224,,,D*64
$GPGGA,134837.60,4858.04741,N,00705.22740,E,2,27,1.00,1448.4,M,47.2,M,,*6D
$PGRMZ,4379,f,3*22
$PFLAA,0,-908,1617,-900,1,39103C!FJLKN,22,65535,53,5.9,7*42
$PFLAU,11,1,2,1,0,,0,,,*7C
$GPGSA,A,3,,,,,,,,,,,,,1.0,1.0,1.0*33
$PFLAA,0,-6834,-31142,4294,1,4D22BC!RYR71VG,26,0,181,-4.6,0*63
$PFLAA,0,-43274,-29944,8113,1,392AEB,101,0,233,0.0,0*2A
$PFLAA,0,12092,,-412,1,39299C!FJKLR,,,,0.0,8*40
$GPRMC,134838.60,A,4858.05702,N,00705.22217,E,36.4,340.8,281224,,,D*6E
$GPGGA,134838.60,4858.05702,N,00705.22217,E,2,27,1.00,1448.3,M,47.2,M,,*64
$PGRMZ,4379,f,3*22
$GPGSA,A,3,,,,,,,,,,,,,1.0,1.0,1.0*33
$PFLAA,0,-925,1623,-900,1,39103C!FJLKN,22,65535,53,5.9,7*4A
$PFLAU,11,1,2,1,0,,0,,,*7C
$PFLAA,0,-43336,-29709,8113,1,392AEB,101,0,233,0.0,0*2A
$PFLAA,0,12133,,-412,1,39299C!FJKLR,,,,0.0,8*4A
$GPRMC,134839.60,A,4858.06641,N,00705.21730,E,36.3,342.1,281224,,,D*65
$GPGGA,134839.60,4858.06641,N,00705.21730,E,2,27,1.00,1448.2,M,47.2,M,,*62
$PGRMZ,4378,f,3*23
$GPGSA,A,3,,,,,,,,,,,,,1.0,1.0,1.0*33
$PFLAA,0,-6399,-30902,4278,1,4D22BC!RYR71VG,26,0,181,-4.6,0*60
$PFLAA,0,-863,1655,-885,1,39103C!FJLKN,18,65534,52,5.0,8*4B
$PFLAU,11,1,2,1,0,,0,,,*7C
$PFLAA,0,-43398,-29475,8114,1,392AEB,101,0,233,0.0,0*21
$PFLAA,0,12133,,-412,1,39299C!FJKLR,,,,0.0,8*4A
$GPRMC,134840.60,A,4858.07602,N,00705.21273,E,36.2,343.1,281224,,,D*6F
$GPGGA,134840.60,4858.07602,N,00705.21273,E,2,27,1.00,1448.1,M,47.2,M,,*6B
$PGRMZ,4378,f,3*23
$GPGSA,A,3,,,,,,,,,,,,,1.0,1.0,1.0*33
$PFLAA,0,-6417,-30897,4281,1,4D22BC!RYR71VG,26,0,181,-4.6,0*6A
$PFLAA,0,-830,1677,-881,1,39103C!FJLKN,16,65535,54,5.5,8*45
$PFLAU,11,1,2,1,0,,0,,,*7C
$PFLAA,0,-43461,-29241,8114,1,392AEB,101,0,233,0.0,0*21
$GPRMC,134843.60,A,4858.10509,N,00705.20085,E,35.9,346.9,281224,,,D*6D
$PGRMZ,4376,f,3*2D
$GPGSA,A,3,,,,,,,,,,,,,1.0,1.0,1.0*33
$PFLAA,0,-727,1731,-868,1,39103C!FJLKN,12,65535,54,3.8,8*47
$PFLAU,11,1,2,1,0,,0,,,*7C
$PFLAA,0,-5821,-30564,4255,1,4D22BC!RYR71VG,26,0,180,-4.6,0*69
$PFLAA,0,-43648,-28541,8114,1,392AEB,101,0,233,0.0,0*2E
$GPRMC,134844.60,A,4858.11493,N,00705.19762,E,35.8,348.2,281224,,,D*69
$GPGGA,134844.60,4858.11493,N,00705.19762,E,2,27,1.00,1447.5,M,47.2,M,,*67
$PGRMZ,4376,f,3*2D
$PFLAA,0,-615,1766,-861,1,39103C!FJLKN,11,65535,54,3.1,8*46
$PFLAU,11,1,2,1,0,,0,,,*7C
$GPGSA,A,3,,,,,,,,,,,,,1.0,1.0,1.0*33
$PFLAA,0,-5677,-30480,4251,1,4D22BC!RYR71VG,26,0,180,-4.6,0*6B
$PFLAA,0,-43711,-28309,8114,1,392AEB,101,0,233,0.0,0*29
$GPRMC,134845.60,A,4858.12454,N,00705.19470,E,35.8,349.3,281224,,,D*60
$GPGGA,134845.60,4858.12454,N,00705.19470,E,2,27,1.00,1447.3,M,47.2,M,,*68
$PGRMZ,4376,f,3*2D
$PFLAA,0,-656,1760,-860,1,39103C!FJLKN,10,65535,55,2.4,8*42
$PFLAU,11,1,2,1,0,,0,,,*7C
$GPGSA,A,3,,,,,,,,,,,,,1.0,1.0,1.0*33
$PFLAA,0,-5532,-30397,4254,1,4D22BC!RYR71VG,26,0,180,-4.6,0*6D
$GPRMC,134846.60,A,4858.13438,N,00705.19207,E,35.6,350.4,281224,,,D*6F
$GPGGA,134846.60,4858.13438,N,00705.19207,E,2,27,1.00,1447.1,M,47.2,M,,*64
$PGRMZ,4376,f,3*2D
$GPGSA,A,3,,,,,,,,,,,,,1.0,1.0,1.0*33
$PFLAA,0,-5388,-30314,4250,1,4D22BC!RYR71VG,26,0,180,-4.6,0*65
$PFLAA,0,-619,1772,-858,1,39103C!FJLKN,9,65535,55,2.0,7*72
$PFLAU,11,1,2,1,0,,0,,,*7C
$GPRMC,134847.60,A,4858.14400,N,00705.18970,E,35.5,351.3,281224,,,D*6D
$GPGGA,134847.60,4858.14400,N,00705.18970,E,2,27,1.00,1447.0,M,47.2,M,,*62
$PGRMZ,4375,f,3*2E
$GPGSA,A,3,,,,,,,,,,,,,1.0,1.0,1.0*33
$PFLAA,0,-5242,-30231,4245,1,4D22BC!RYR71VG,26,0,180,-4.6,0*60
$PFLAA,0,-517,1797,-853,1,39103C!FJLKN,6,65535,56,2.9,8*75
$PFLAU,12,1,2,1,0,,0,,,*7F
$GPRMC,134848.60,A,4858.15384,N,00705.18755,E,35.4,352.2,281224,,,D*62
$GPGGA,134848.60,4858.15384,N,00705.18755,E,2,27,1.00,1446.8,M,47.2,M,,*67
$PGRMZ,4374,f,3*2F
$GPGSA,A,3,,,,,,,,,,,,,1.0,1.0,1.0*33
$PFLAA,0,-5098,-30148,4240,1,4D22BC!RYR71VG,26,0,180,-4.6,0*6D
$PFLAA,0,-543,1792,-853,1,39103C!FJLKN,6,65535,56,1.9,8*72
$PFLAU,12,1,2,1,0,,0,,,*7F
$GPRMC,134849.60,A,4858.16345,N,00705.18569,E,35.3,353.4,281224,,,D*60
$GPGGA,134849.60,4858.16345,N,00705.18569,E,2,27,1.00,1446.6,M,47.2,M,,*6B
$PGRMZ,4374,f,3*2F
$GPGSA,A,3,,,,,,,,,,,,,1.0,1.0,1.0*33
$PFLAA,0,-4953,-30066,4236,1,4D22BC!RYR71VG,26,0,180,-4.6,0*6E
$PFLAA,0,-505,1800,-850,1,39103C!FJLKN,5,0,56,2.2,8*7C
$PFLAU,12,1,2,1,0,,0,,,*7F
$GPRMC,134850.60,A,4858.17329,N,00705.18414,E,35.3,354.5,281224,,,D*6E
$GPGGA,134850.60,4858.17329,N,00705.18414,E,2,27,1.00,1446.4,M,47.2,M,,*61
$PGRMZ,4374,f,3*2F
$GPGSA,A,3,,,,,,,,,,,,,1.0,1.0,1.0*33
$PFLAA,0,-466,1807,-848,1,39103C!FJLKN,4,65535,57,2.3,8*77
$PFLAU,12,1,2,1,0,,0,,,*7F
$PFLAA,0,-4809,-29985,4231,1,4D22BC!RYR71VG,26,0,180,-4.6,0*6B
$GPRMC,134851.60,A,4858.18291,N,00705.18283,E,35.0,355.4,281224,,,D*69
$GPGGA,134851.60,4858.18291,N,00705.18283,E,2,27,1.00,1446.2,M,47.2,M,,*63
$PGRMZ,4374,f,3*2F
$GPGSA,A,3,,,,,,,,,,,,,1.0,1.0,1.0*33
$PFLAA,0,-427,1813,-845,1,39103C!FJLKN,3,0,57,2.9,8*77
$PFLAU,12,1,2,1,0,,0,,,*7F
$PFLAA,0,-4664,-29904,4227,1,4D22BC!RYR71VG,26,0,180,-4.6,0*60
$GPRMC,134852.60,A,4858.19275,N,00705.18177,E,35.0,356.3,281224,,,D*6D
$GPGGA,134852.60,4858.19275,N,00705.18177,E,2,27,1.00,1446.0,M,47.2,M,,*61
$PGRMZ,4373,f,3*28
$GPGSA,A,3,,,,,,,,,,,,,1.0,1.0,1.0*33
$PFLAA,0,-4520,-29823,4223,1,4D22BC!RYR71VG,26,0,180,-4.6,0*63
$PFLAA,0,-445,1814,-845,1,39103C!FJLKN,3,0,57,2.9,8*74
$PFLAU,12,1,2,1,0,,0,,,*7F
$GPRMC,134853.60,A,4858.20236,N,00705.18094,E,35.0,357.1,281224,,,D*6E
$GPGGA,134853.60,4858.20236,N,00705.18094,E,2,27,1.00,1445.8,M,47.2,M,,*6A
$PGRMZ,4373,f,3*28
$GPGSA,A,3,,,,,,,,,,,,,1.0,1.0,1.0*33
$PFLAA,0,-4375,-29742,4218,1,4D22BC!RYR71VG,26,0,180,-4.6,0*65
$PFLAA,0,-347,1822,-841,1,39103C!FJLKN,2,0,58,1.3,8*77
$PFLAU,12,1,2,1,0,,0,,,*7F
$GPRMC,134854.60,A,4858.21198,N,00705.18034,E,34.8,357.9,281224,,,D*64
$GPGGA,134854.60,4858.21198,N,00705.18034,E,2,27,1.00,1445.7,M,47.2,M,,*6E
$PGRMZ,4372,f,3*29
$PFLAA,0,-307,1824,-840,1,39103C!FJLKN,1,0,58,0.7,8*72
$GPGSA,A,3,,,,,,,,,,,,,1.0,1.0,1.0*33
$PFLAU,13,1,2,1,0,,0,,,*7E
$PFLAA,0,-4231,-29662,4214,1,4D22BC!RYR71VG,26,0,180,-4.6,0*6B
$GPRMC,134855.60,A,4858.22159,N,00705.17994,E,34.7,358.8,281224,,,D*66
$GPGGA,134855.60,4858.22159,N,00705.17994,E,2,27,1.00,1445.5,M,47.2,M,,*6F
$PGRMZ,4372,f,3*29
$GPGSA,A,3,,,,,,,,,,,,,1.0,1.0,1.0*33
$PFLAA,0,-4086,-29581,4209,1,4D22BC!RYR71VG,26,0,180,-4.6,0*67
$PFLAA,0,-266,1826,-838,1,39103C!FJLKN,1,0,58,1.1,8*7E
$PFLAU,14,1,2,1,0,,0,,,*79
$GPRMC,134856.60,A,4858.23143,N,00705.17977,E,34.7,359.5,281224,,,D*6E
$GPGGA,134856.60,4858.23143,N,00705.17977,E,2,27,1.00,1445.3,M,47.2,M,,*6D
$PGRMZ,4371,f,3*2A
$GPGSA,A,3,,,,,,,,,,,,,1.0,1.0,1.0*33
$PFLAA,0,-128,1830,-829,1,39103C!FJLKN,359,65535,59,1.6,7*77
$PFLAA,0,-3942,-29502,4199,1,4D22BC!RYR71VG,26,0,180,-4.6,0*60
$PFLAU,15,1,2,1,0,,0,,,*78
$GPRMC,134857.60,A,4858.24104,N,00705.17974,E,34.7,0.1,281224,,,D*63
$GPGGA,134857.60,4858.24104,N,00705.17974,E,2,27,1.00,1445.1,M,47.2,M,,*69
$PGRMZ,4370,f,3*2B
$GPGSA,A,3,,,,,,,,,,,,,1.0,1.0,1.0*33
$PFLAA,0,-111,1829,-829,1,39103C!FJLKN,359,0,59,1.6,8*7A
$PFLAU,15,1,2,1,0,,0,,,*78
$PFLAA,0,-3809,-29442,4198,1,4D22BC!RYR71VG,26,0,180,-4.6,0*6A
$GPRMC,134858.60,A,4858.25066,N,00705.17988,E,34.7,0.5,281224,,,D*6F
$GPGGA,134858.60,4858.25066,N,00705.17988,E,2,27,1.00,1444.8,M,47.2,M,,*69
$PGRMZ,4370,f,3*2B
$PFLAA,0,-142,1825,-835,1,39103C!FJLKN,359,0,59,0.4,8*7E
$GPGSA,A,3,,,,,,,,,,,,,1.0,1.0,1.0*33
$PFLAA,0,10711,-31092,9922,1,4B191B!SWR41G,155,0,256,-2.0,0*6C
$PFLAA,0,-3606,-29338,4192,1,4D22BC!RYR71VG,26,0,180,-4.9,0*64
$PFLAU,15,1,2,1,0,,0,,,*78
$GPRMC,134859.60,A,4858.26027,N,00705.18011,E,34.7,1.1,281224,,,D*6B
$GPGGA,134859.60,4858.26027,N,00705.18011,E,2,27,1.00,1444.7,M,47.2,M,,*67
$PGRMZ,4369,f,3*23
$PFLAA,0,-100,1823,-835,1,39103C!FJLKN,358,0,60,0.8,8*79
$PFLAU,15,1,2,1,0,,0,,,*78
$GPGSA,A,3,,,,,,,,,,,,,1.0,1.0,1.0*33
$PFLAA,0,-3547,-29301,4184,1,4D22BC!RYR71VG,26,0,180,-4.9,0*6F
$PFLAA,0,10693,-31092,9915,1,4B191B!SWR41G,155,0,256,-2.0,0*63
$GPRMC,134900.60,A,4858.26988,N,00705.18048,E,34.5,1.7,281224,,,D*62
$GPGGA,134900.60,4858.26988,N,00705.18048,E,2,27,1.00,1444.5,M,47.2,M,,*68
$PGRMZ,4369,f,3*23
$GPGSA,A,3,,,,,,,,,,,,,1.0,1.0,1.0*33
$PFLAA,0,28,1818,-821,1,39103C!FJLKN,358,0,60,1.2,8*69
$PFLAU,15,1,2,1,0,,0,,,*78
$PFLAA,0,-3565,-29301,4185,1,4D22BC!RYR71VG,26,0,180,-4.9,0*6E
$PFLAA,0,10213,-30882,9915,1,4B191B!SWR41G,155,0,256,-2.0,0*67
$GPRMC,134901.60,A,4858.27950,N,00705.18100,E,34.5,2.3,281224,,,D*6D
$GPGGA,134901.60,4858.27950,N,00705.18100,E,2,27,1.00,1444.3,M,47.2,M,,*66
$PGRMZ,4368,f,3*22
$GPGSA,A,3,,,,,,,,,,,,,1.0,1.0,1.0*33
$PFLAA,0,-3183,-29106,4177,1,4D22BC!RYR71VG,26,0,180,-4.9,0*6A
$PFLAA,0,10195,-30883,9915,1,4B191B!SWR41G,155,0,255,-2.6,0*6E
$PFLAA,0,-13,1818,-830,1,39103C!FJLKN,357,0,60,1.4,8*45
$PFLAU,15,1,2,1,0,,0,,,*78
$GPRMC,134902.60,A,4858.28888,N,00705.18166,E,34.4,3.0,281224,,,D*66
$GPGGA,134902.60,4858.28888,N,00705.18166,E,2,27,1.00,1444.1,M,47.2,M,,*6C
$PGRMZ,4367,f,3*2D
$GPGSA,A,3,,,,,,,,,,,,,1.0,1.0,1.0*33
$PFLAA,0,-3200,-29106,4177,1,4D22BC!RYR71VG,26,0,180,-4.9,0*62
$PFLAA,0,29,1814,-829,1,39103C!FJLKN,357,0,61,2.0,8*63
$PFLAU,15,1,2,1,0,,0,,,*78
$PFLAA,0,9532,-30591,9908,1,4B191B!SWR41G,155,0,255,-2.6,0*5D
$GPRMC,134903.60,A,4858.29849,N,00705.18251,E,34.4,3.4,281224,,,D*68
$GPGGA,134903.60,4858.29849,N,00705.18251,E,2,27,1.00,1443.9,M,47.2,M,,*69
$PGRMZ,4367,f,3*2D
$GPGSA,A,3,,,,,,,,,,,,,1.0,1.0,1.0*33
$PFLAA,0,-2880,-28947,4170,1,4D22BC!RYR71VG,26,0,180,-4.9,9*63
$PFLAA,0,72,1810,-828,1,39103C!FJLKN,357,0,61,2.0,8*68
$PFLAU,15,1,2,1,0,,0,,,*78
$PFLAA,0,9515,-30592,9908,1,4B191B!SWR41G,155,0,255,-2.6,0*5B
$GPRMC,134904.60,A,4858.30811,N,00705.18340,E,34.3,3.8,281224,,,D*60
$GPGGA,134904.60,4858.30811,N,00705.18340,E,2,27,1.00,1443.7,M,47.2,M,,*64
$PGRMZ,4366,f,3*2C
$GPGSA,A,3,,,,,,,,,,,,,1.0,1.0,1.0*33
$PFLAA,0,-2897,-28948,4163,1,4D22BC!RYR71VG,26,0,180,-4.9,9*68
$PFLAA,0,9497,-30593,9908,1,4B191B!SWR41G,155,0,255,-2.6,0*51
$PFLAA,0,116,1806,-824,1,39103C!FJLKN,356,0,61,2.0,8*51
$PFLAU,15,1,2,1,0,,0,,,*78
$GPRMC,134905.60,A,4858.31749,N,00705.18446,E,34.1,4.5,281224,,,D*6B
$GPGGA,134905.60,4858.31749,N,00705.18446,E,2,27,1.00,1443.5,M,47.2,M,,*65
$PGRMZ,4365,f,3*2F
$PFLAA,0,159,1800,-822,1,39103C!FJLKN,356,0,61,1.9,8*50
$GPGSA,A,3,,,,,,,,,,,,,1.0,1.0,1.0*33
$PFLAA,0,-2915,-28949,4163,1,4D22BC!RYR71VG,26,0,180,-4.9,9*62
$PFLAA,0,8845,-30300,9901,1,4B191B!SWR41G,155,0,255,-2.6,0*56
$PFLAU,15,1,2,1,0,,0,,,*78
$GPRMC,134906.60,A,4858.32687,N,00705.18569,E,33.9,5.4,281224,,,D*6B
$GPGGA,134906.60,4858.32687,N,00705.18569,E,2,27,1.00,1443.4,M,47.2,M,,*6B
$PGRMZ,4365,f,3*2F
$GPGSA,A,3,,,,,,,,,,,,,1.0,1.0,1.0*33
$PFLAA,0,8596,-30194,9898,1,4B191B!SWR41G,155,0,255,-2.6,0*5B
$PFLAA,0,-2442,-28713,4155,1,4D22BC!RYR71VG,26,0,180,-4.9,9*69
$PFLAA,0,294,1791,-804,1,39103C!FJLKN,356,0,61,1.7,8*5F
$PFLAU,15,1,2,1,0,,0,,,*78
$GPRMC,134907.60,A,4858.33626,N,00705.18718,E,33.7,6.8,281224,,,D*65
$GPGGA,134907.60,4858.33626,N,00705.18718,E,2,27,1.00,1443.3,M,47.2,M,,*63
$PGRMZ,4364,f,3*2E
$PFLAA,0,247,1789,-817,1,39103C!FJLKN,356,0,61,1.9,8*54
$GPGSA,A,3,,,,,,,,,,,,,1.0,1.0,1.0*33
$PFLAA,0,8347,-30089,9896,1,4B191B!SWR41G,155,0,255,-2.6,0*52
$PFLAU,15,1,2,1,0,,0,,,*78
$PFLAA,0,-2294,-28630,4148,1,4D22BC!RYR71VG,26,0,180,-4.9,9*68
$GPRMC,134908.60,A,4858.34541,N,00705.18904,E,33.5,8.0,281224,,,D*68
$GPGGA,134908.60,4858.34541,N,00705.18904,E,2,27,1.00,1443.1,M,47.2,M,,*68
$PGRMZ,4364,f,3*2E
$PFLAA,0,292,1782,-815,1,39103C!FJLKN,355,0,62,2.6,8*59
$PFLAU,15,1,2,1,0,,0,,,*78
$GPGSA,A,3,,,,,,,,,,,,,1.0,1.0,1.0*33
$PFLAA,0,-2151,-28558,4140,1,4D22BC!RYR71VG,26,0,180,-4.9,9*67
$PFLAA,0,8099,-29983,9893,1,4B191B!SWR41G,155,0,255,-2.6,0*5C
$GPRMC,134909.60,A,4858.35480,N,00705.19115,E,33.5,9.0,281224,,,D*6C
$GPGGA,134909.60,4858.35480,N,00705.19115,E,2,27,1.00,1443.0,M,47.2,M,,*6C
$PGRMZ,4363,f,3*29
$GPGSA,A,3,,,,,,,,,,,,,1.0,1.0,1.0*33
$PFLAA,0,-2103,-28528,4133,1,4D22BC!RYR71VG,26,0,180,-4.9,9*63
$PFLAA,0,436,1769,-796,1,39103C!FJLKN,355,0,61,2.3,8*56
$PFLAA,0,7850,-29879,9890,1,4B191B!SWR41G,155,0,255,-2.6,0*59
$PFLAU,16,1,2,1,0,,0,,,*7B
$GPRMC,134910.60,A,4858.36395,N,00705.19341,E,33.4,9.7,281224,,,D*61
$GPGGA,134910.60,4858.36395,N,00705.19341,E,2,27,1.00,1442.8,M,47.2,M,,*6E
$PGRMZ,4362,f,3*28
$GPGSA,A,3,,,,,,,,,,,,,1.0,1.0,1.0*33
$PFLAA,0,444,1761,-796,1,39103C!FJLKN,355,0,61,2.3,8*5B
$PFLAA,0,7601,-29774,9879,1,4B191B!SWR41G,155,0,255,-2.6,0*56
$PFLAA,0,-1895,-28420,4133,1,4D22BC!RYR71VG,26,0,180,-4.9,9*6F
$PFLAU,16,1,2,1,0,,0,,,*7B
$GPRMC,134911.60,A,4858.37288,N,00705.19585,E,33.3,10.2,281224,,,D*58
$GPGGA,134911.60,4858.37288,N,00705.19585,E,2,27,1.00,1442.6,M,47.2,M,,*63
$PGRMZ,4362,f,3*28
$GPGSA,A,3,,,,,,,,,,,,,1.0,1.0,1.0*33
$PFLAA,0,-1750,-28347,4126,1,4D22BC!RYR71VG,26,0,180,-4.9,9*6B
$PFLAA,0,489,1752,-796,1,39103C!FJLKN,354,0,61,2.3,8*5B
$PFLAU,16,1,2,1,0,,0,,,*7B
$PFLAA,0,7353,-29670,9876,1,4B191B!SWR41G,155,0,255,-2.6,0*5E
$GPRMC,134912.60,A,4858.38203,N,00705.19848,E,33.3,11.1,281224,,,D*59
$GPGGA,134912.60,4858.38203,N,00705.19848,E,2,27,1.00,1442.4,M,47.2,M,,*62
$PGRMZ,4361,f,3*2B
$GPGSA,A,3,,,,,,,,,,,,,1.0,1.0,1.0*33
$PFLAA,0,7104,-29565,9864,1,4B191B!SWR41G,155,0,255,-2.6,0*5A
$PFLAA,0,-1625,-28283,4126,1,4D22BC!RYR71VG,26,0,180,-5.2,9*6B
$PFLAA,0,519,1744,-796,1,39103C!FJLKN,353,0,61,2.6,8*56
$PFLAU,16,1,2,1,0,,0,,,*7B
$GPRMC,134913.60,A,4858.39119,N,00705.20128,E,33.0,12.2,281224,,,D*57
$GPGGA,134913.60,4858.39119,N,00705.20128,E,2,27,1.00,1442.2,M,47.2,M,,*69
$PGRMZ,4360,f,3*2A
$GPGSA,A,3,,,,,,,,,,,,,1.0,1.0,1.0*33
$PFLAA,0,-1499,-28214,4119,1,4D22BC!RYR71VG,26,0,179,-5.2,9*6A
$PFLAA,0,43410,-18945,-574,1,3FEF3A!DMIKP,333,0,36,0.0,0*24
$PFLAA,0,587,1731,-788,1,39103C!FJLKN,353,0,61,2.6,8*5C
$PFLAA,0,6856,-29461,9861,1,4B191B!SWR41G,155,0,255,-2.6,0*55
$PFLAU,16,1,2,1,0,,0,,,*7B
$GPRMC,134914.60,A,4858.40012,N,00705.20437,E,32.9,13.3,281224,,,D*57
$GPGGA,134914.60,4858.40012,N,00705.20437,E,2,27,1.00,1442.0,M,47.2,M,,*63
$PGRMZ,4360,f,3*2A
$GPGSA,A,3,,,,,,,,,,,,,1.0,1.0,1.0*33
$PFLAA,0,6608,-29358,9859,1,4B191B!SWR41G,155,0,255,-2.6,0*56
$PFLAA,0,570,1727,-788,1,39103C!FJLKN,353,0,61,2.6,8*53
$PFLAU,16,1,2,1,0,,0,,,*7B
$PFLAA,0,-1336,-28136,4111,1,4D22BC!RYR71VG,26,0,180,-5.2,9*65
$PFLAA,0,43444,-18973,-574,1,3FEF3A!DMIKP,333,0,36,0.0,0*20
$GPRMC,134915.60,A,4858.40904,N,00705.20769,E,32.8,14.1,281224,,,D*54
$GPGGA,134915.60,4858.40904,N,00705.20769,E,2,27,1.00,1441.8,M,47.2,M,,*6F
$PGRMZ,4360,f,3*2A
$GPGSA,A,3,,,,,,,,,,,,,1.0,1.0,1.0*33
$PFLAA,0,554,1723,-787,1,39103C!FJLKN,353,0,61,2.6,8*5E
$PFLAA,0,-1146,-28039,4111,1,4D22BC!RYR71VG,26,0,179,-5.2,9*68
$PFLAA,0,43427,-18977,-574,1,3FEF3A!DMIKP,333,0,36,0.0,0*21
$PFLAA,0,6360,-29254,9856,1,4B191B!SWR41G,155,0,255,-2.6,0*5F
$PFLAU,16,1,2,1,0,,0,,,*7B
$GPRMC,134916.60,A,4858.41774,N,00705.21115,E,32.6,15.0,281224,,,D*5D
$GPGGA,134916.60,4858.41774,N,00705.21115,E,2,27,1.00,1441.7,M,47.2,M,,*67
$PGRMZ,4359,f,3*20
$PFLAA,0,719,1693,-780,1,39103C!FJLKN,352,0,61,2.6,8*59
$GPGSA,A,3,,,,,,,,,,,,,1.0,1.0,1.0*33
$PFLAA,0,6137,-29188,9842,1,4B191B!SWR41G,155,0,255,-2.6,0*58
$PFLAA,0,43468,-19008,-574,1,3FEF3A!DMIKP,333,0,36,0.0,0*2A
$PFLAA,0,-1094,-28006,4104,1,4D22BC!RYR71VG,26,0,179,-5.2,9*6E
$PFLAU,16,1,2,1,0,,0,,,*7B
$GPRMC,134917.60,A,4858.42644,N,00705.21482,E,32.6,15.7,281224,,,D*51
$GPGGA,134917.60,4858.42644,N,00705.21482,E,2,27,1.00,1441.5,M,47.2,M,,*6E
$PGRMZ,4359,f,3*20
$GPGSA,A,3,,,,,,,,,,,,,1.0,1.0,1.0*33
$PFLAA,0,-1110,-28011,4096,1,4D22BC!RYR71VG,26,0,179,-5.2,9*6F
$PFLAA,0,766,1678,-780,1,39103C!FJLKN,352,0,61,2.6,8*54
$PFLAU,16,1,2,1,0,,0,,,*7B
$PFLAA,0,5892,-29090,9834,1,4B191B!SWR41G,155,0,253,-6.8,0*58
$PFLAA,0,43452,-19012,-574,1,3FEF3A!DMIKP,333,0,36,0.0,0*28
$GPRMC,134918.60,A,4858.43513,N,00705.21862,E,32.6,16.6,281224,,,D*5E
$GPGGA,134918.60,4858.43513,N,00705.21862,E,2,27,1.00,1441.4,M,47.2,M,,*62
$PGRMZ,4359,f,3*20
$GPGSA,A,3,,,,,,,,,,,,,1.0,1.0,1.0*33
$PFLAA,0,-1127,-28015,4096,1,4D22BC!RYR71VG,26,0,179,-5.2,9*6F
$PFLAA,0,750,1674,-780,1,39103C!FJLKN,352,0,61,2.6,8*5D
$PFLAU,15,1,2,1,0,,0,,,*78
$PFLAA,0,5876,-29095,9827,1,4B191B!SWR41G,155,0,253,-6.8,0*55
$PFLAA,0,43497,-19053,-566,1,3FEF3A!DMIKP,333,0,36,0.0,0*27
$GPRMC,134919.60,A,4858.44383,N,00705.22265,E,32.4,17.5,281224,,,D*59
$GPGGA,134919.60,4858.44383,N,00705.22265,E,2,27,1.00,1441.2,M,47.2,M,,*63
$PGRMZ,4358,f,3*21
$PFLAA,0,734,1669,-779,1,39103C!FJLKN,352,0,61,2.6,8*55
$PFLAU,15,1,2,1,0,,0,,,*78
$GPGSA,A,3,,,,,,,,,,,,,1.0,1.0,1.0*33
$PFLAA,0,-563,-27744,4089,1,4D22BC!RYR71VG,26,0,179,-5.2,9*58
$PFLAA,0,5330,-28860,9819,1,4B191B!SWR41G,155,0,253,-6.8,0*52
$PFLAA,0,43503,-19069,-566,1,3FEF3A!DMIKP,333,0,36,0.0,0*22
$GPRMC,134920.60,A,4858.45230,N,00705.22686,E,32.4,18.5,281224,,,D*5D
$GPGGA,134920.60,4858.45230,N,00705.22686,E,2,27,1.00,1441.1,M,47.2,M,,*6B
$PGRMZ,4357,f,3*2E
$PFLAA,0,899,1641,-771,1,39103C!FJLKN,351,0,61,2.6,8*5C
$GPGSA,A,3,,,,,,,,,,,,,1.0,1.0,1.0*33
$PFLAA,0,43487,-19074,-566,1,3FEF3A!DMIKP,333,0,36,0.0,0*23
$PFLAA,0,5080,-28763,9812,1,4B191B!SWR41G,155,0,253,-6.8,9*54
$PFLAA,0,-396,-27661,4081,1,4D22BC!RYR71VG,26,0,179,-5.2,9*5A
$PFLAU,14,1,2,1,0,,0,,,*79
$GPRMC,134921.60,A,4858.46077,N,00705.23124,E,32.2,19.3,281224,,,D*51
$GPGGA,134921.60,4858.46077,N,00705.23124,E,2,27,1.00,1441.0,M,47.2,M,,*67
$PGRMZ,4357,f,3*2E
$GPGSA,A,3,,,,,,,,,,,,,1.0,1.0,1.0*33
$PFLAA,0,944,1627,-769,1,39103C!FJLKN,351,0,61,2.6,7*5B
$PFLAU,14,1,2,1,0,,0,,,*79
$PFLAA,0,4881,-28686,9804,1,4B191B!SWR41G,155,0,253,-6.8,9*51
$PFLAA,0,-330,-27630,4082,1,4D22BC!RYR71VG,26,0,179,-5.2,9*51
$PFLAA,0,43531,-19109,-566,1,3FEF3A!DMIKP,333,0,36,0.0,0*24
$GPRMC,134922.60,A,4858.46924,N,00705.23582,E,32.0,20.2,281224,,,D*5C
$GPGGA,134922.60,4858.46924,N,00705.23582,E,2,27,1.00,1440.8,M,47.2,M,,*6A
$PGRMZ,4356,f,3*2F
$GPGSA,A,3,,,,,,,,,,,,,1.0,1.0,1.0*33
$PFLAA,0,-118,-27522,4074,1,4D22BC!RYR71VG,26,0,179,-5.2,9*50
$PFLAA,0,43515,-19114,-565,1,3FEF3A!DMIKP,333,0,36,0.0,0*2D
$PFLAA,0,990,1612,-766,1,39103C!FJLKN,351,0,61,2.6,7*5B
$PFLAA,0,4866,-28692,9797,1,4B191B!SWR41G,156,0,252,-7.5,9*56
$PFLAU,16,1,2,1,0,,0,,,*7B
$GPRMC,134923.60,A,4858.47748,N,00705.24056,E,31.9,21.2,281224,,,D*58
$GPGGA,134923.60,4858.47748,N,00705.24056,E,2,27,1.00,1440.7,M,47.2,M,,*6A
$PGRMZ,4355,f,3*2C
$GPGSA,A,3,,,,,,,,,,,,,1.0,1.0,1.0*33
$PFLAA,0,4850,-28697,9797,1,4B191B!SWR41G,156,0,252,-7.5,9*56
$PFLAA,0,26,-27453,4067,1,4D22BC!RYR71VG,26,0,179,-4.9,9*4E
$PFLAA,0,43571,-19156,-565,1,3FEF3A!DMIKP,333,0,36,0.0,0*29
$PFLAA,0,1035,1597,-764,1,39103C!FJLKN,350,0,61,2.6,7*61
$PFLAU,16,1,2,1,0,,0,,,*7B
$GPRMC,134924.60,A,4858.48572,N,00705.24551,E,31.8,22.1,281224,,,D*58
$GPGGA,134924.60,4858.48572,N,00705.24551,E,2,27,1.00,1440.5,M,47.2,M,,*69
$PGRMZ,4355,f,3*2C
$GPGSA,A,3,,,,,,,,,,,,,1.0,1.0,1.0*33
$PFLAA,0,4175,-28411,9776,1,4B191B!SWR41G,156,0,252,-7.5,9*5B
$PFLAA,0,161,-27385,4067,1,4D22BC!RYR71VG,26,0,179,-4.9,9*70
$PFLAA,0,1081,1581,-761,1,39103C!FJLKN,350,0,61,2.6,7*6C
$PFLAA,0,43586,-19177,-565,1,3FEF3A!DMIKP,333,0,36,0.0,0*22
$PFLAU,16,1,2,1,0,,0,,,*7B
$GPRMC,134925.60,A,4858.49396,N,00705.25064,E,31.6,23.0,281224,,,D*58
$GPGGA,134925.60,4858.49396,N,00705.25064,E,2,27,1.00,1440.4,M,47.2,M,,*66
$PGRMZ,4354,f,3*2D
$PFLAA,0,1127,1564,-758,1,39103C!FJLKN,349,0,61,2.6,7*68
$GPGSA,A,3,,,,,,,,,,,,,1.0,1.0,1.0*33
$PFLAA,0,145,-27391,4060,1,4D22BC!RYR71VG,26,0,179,-4.9,9*74
$PFLAA,0,43596,-19198,-565,1,3FEF3A!DMIKP,333,0,36,0.0,0*22
$PFLAU,16,1,2,1,0,,0,,,*7B
$PFLAA,0,3929,-28315,9775,1,4B191B!SWR41G,156,0,252,-7.5,9*5D
$GPRMC,134926.60,A,4858.50197,N,00705.25593,E,31.6,23.8,281224,,,D*55
$GPGGA,134926.60,4858.50197,N,00705.25593,E,2,27,1.00,1440.2,M,47.2,M,,*65
$PGRMZ,4354,f,3*2D
$GPGSA,A,3,,,,,,,,,,,,,1.0,1.0,1.0*33
$PFLAA,0,3660,-28205,9767,1,4B191B!SWR41G,156,0,252,-7.2,9*5B
$PFLAA,0,131,-27397,4060,1,4D22BC!RYR71VG,26,0,179,-4.9,9*71
$PFLAA,0,43627,-19225,-565,1,3FEF3A!DMIKP,333,0,35,0.0,0*2D
$PFLAA,0,1107,1538,-765,1,39103C!FJLKN,348,0,63,1.9,8*6D
$PFLAU,16,1,2,1,0,,0,,,*7B
$GPRMC,134927.60,A,4858.50998,N,00705.26139,E,31.5,24.4,281224,,,D*5C
$GPGGA,134927.60,4858.50998,N,00705.26139,E,2,27,1.00,1440.1,M,47.2,M,,*67
$PGRMZ,4353,f,3*2A
$GPGSA,A,3,,,,,,,,,,,,,1.0,1.0,1.0*33
$PFLAA,0,1154,1518,-763,1,39103C!FJLKN,348,0,63,1.6,8*60
$PFLAA,0,43612,-19232,-564,1,3FEF3A!DMIKP,333,0,35,0.0,0*2C
$PFLAA,0,3367,-28092,9760,1,4B191B!SWR41G,156,0,252,-7.2,9*52
$PFLAA,0,576,-27181,4052,1,4D22BC!RYR71VG,26,0,179,-4.9,9*72
$PFLAU,15,1,2,1,0,,0,,,*78
$GPRMC,134928.60,A,4858.51799,N,00705.26697,E,31.6,24.9,281224,,,D*50
$GPGGA,134928.60,4858.51799,N,00705.26697,E,2,27,1.00,1439.9,M,47.2,M,,*63
$PGRMZ,4352,f,3*2B
$GPGSA,A,3,,,,,,,,,,,,,1.0,1.0,1.0*33
$PFLAA,0,561,-27188,4045,1,4D22BC!RYR71VG,26,0,179,-4.9,9*7B
$PFLAA,0,43598,-19239,-564,1,3FEF3A!DMIKP,333,0,35,0.0,0*26
$PFLAA,0,1201,1498,-761,1,39103C!FJLKN,347,0,63,1.5,8*64
$PFLAA,0,3141,-28009,9760,1,4B191B!SWR41G,156,0,252,-7.2,9*56
$PFLAU,15,1,2,1,0,,0,,,*78
$GPRMC,134929.60,A,4858.52600,N,00705.27261,E,31.5,25.4,281224,,,D*50
$GPGGA,134929.60,4858.52600,N,00705.27261,E,2,27,1.00,1439.7,M,47.2,M,,*62
$PGRMZ,4352,f,3*2B
$GPGSA,A,3,,,,,,,,,,,,,1.0,1.0,1.0*33
$PFLAA,0,3127,-28016,9752,1,4B191B!SWR41G,156,0,252,-7.2,9*59
$PFLAA,0,546,-27195,4037,1,4D22BC!RYR71VG,26,0,179,-4.9,9*77
$PFLAA,0,1186,1491,-761,1,39103C!FJLKN,347,0,63,1.5,8*61
$PFLAU,15,1,2,1,0,,0,,,*78
$PFLAA,0,43671,-19290,-564,1,3FEF3A!DMIKP,333,0,35,0.0,0*21
$GPRMC,134930.60,A,4858.53378,N,00705.27836,E,31.4,25.9,281224,,,D*57
$GPGGA,134930.60,4858.53378,N,00705.27836,E,2,27,1.00,1439.5,M,47.2,M,,*6B
$PGRMZ,4351,f,3*28
$GPGSA,A,3,,,,,,,,,,,,,1.0,1.0,1.0*33
$PFLAA,0,3112,-28023,9745,1,4B191B!SWR41G,156,0,252,-7.2,9*5F
$PFLAA,0,1295,1455,-756,1,39103C!FJLKN,346,0,63,1.4,8*6C
$PFLAU,15,1,2,1,0,,0,,,*78
$PFLAA,0,985,-26979,4024,1,4D22BC!RYR71VG,26,0,179,-4.9,9*7D
$PFLAA,0,43688,-19313,-564,1,3FEF3A!DMIKP,333,0,35,0.0,0*2D
$GPRMC,134931.60,A,4858.54156,N,00705.28417,E,31.5,26.0,281224,,,D*54
$GPGGA,134931.60,4858.54156,N,00705.28417,E,2,27,1.00,1439.3,M,47.2,M,,*65
$PGRMZ,4351,f,3*28
$PFLAA,0,1344,1433,-755,1,39103C!FJLKN,346,0,64,1.1,8*60
$GPGSA,A,3,,,,,,,,,,,,,1.0,1.0,1.0*33
$PFLAA,0,2366,-27705,9738,1,4B191B!SWR41G,156,0,251,-6.5,9*5C
$PFLAA,0,43706,-19337,-564,1,3FEF3A!DMIKP,333,0,35,0.0,0*2C
$PFLAU,14,1,2,1,0,,0,,,*79
$PFLAA,0,1219,-26873,4030,1,4D22BC!RYR71VG,26,0,179,-4.9,9*4C
$GPRMC,134932.60,A,4858.54958,N,00705.28997,E,31.7,25.8,281224,,,D*5D
$GPGGA,134932.60,4858.54958,N,00705.28997,E,2,27,1.00,1439.0,M,47.2,M,,*66
$PGRMZ,4350,f,3*29
$GPGSA,A,3,,,,,,,,,,,,,1.0,1.0,1.0*33
$PFLAA,0,1286,-26844,4023,1,4D22BC!RYR71VG,26,0,179,-4.9,9*4C
$PFLAA,0,43726,-19354,-556,1,3FEF3A!DMIKP,333,0,35,0.0,0*2A
$PFLAA,0,1391,1410,-754,1,39103C!FJLKN,345,0,64,1.6,8*6C
$PFLAA,0,2351,-27713,9738,1,4B191B!SWR41G,156,0,251,-6.5,9*5F
$PFLAU,14,1,2,1,0,,0,,,*79
$GPRMC,134933.60,A,4858.55759,N,00705.29575,E,32.0,25.3,281224,,,D*5C
$GPGGA,134933.60,4858.55759,N,00705.29575,E,2,27,1.00,1438.7,M,47.2,M,,*6E
$PGRMZ,4349,f,3*21
$GPGSA,A,3,,,,,,,,,,,,,1.0,1.0,1.0*33
$PFLAA,0,1539,-26719,4023,1,4D22BC!RYR71VG,26,0,179,-4.9,9*48
$PFLAA,0,1438,1386,-752,1,39103C!FJLKN,345,0,64,0.4,8*65
$PFLAU,14,1,2,1,0,,0,,,*79
$PFLAA,0,2081,-27615,9723,1,4B191B!SWR41G,156,0,251,-6.5,9*5C
$PFLAA,0,43711,-19361,-556,1,3FEF3A!DMIKP,333,0,35,0.0,0*28
$GPRMC,134934.60,A,4858.56560,N,00705.30148,E,32.2,24.7,281224,,,D*55
$GPGGA,134934.60,4858.56560,N,00705.30148,E,2,27,1.00,1438.4,M,47.2,M,,*63
$PGRMZ,4348,f,3*20
$PFLAA,0,1486,1363,-750,1,39103C!FJLKN,345,0,64,0.8,8*65
$PFLAU,14,1,2,1,0,,0,,,*79
$GPGSA,A,3,,,,,,,,,,,,,1.0,1.0,1.0*33
$PFLAA,0,1524,-26726,4016,1,4D22BC!RYR71VG,26,0,179,-4.9,9*4E
$PFLAA,0,2066,-27622,9723,1,4B191B!SWR41G,156,0,251,-6.5,9*51
$PFLAA,0,43696,-19368,-555,1,3FEF3A!DMIKP,335,0,35,0.0,0*2A
$GPRMC,134935.60,A,4858.57361,N,00705.30714,E,32.2,24.6,281224,,,D*5C
$GPGGA,134935.60,4858.57361,N,00705.30714,E,2,27,1.00,1438.2,M,47.2,M,,*6D
$PGRMZ,4347,f,3*2F
$GPGSA,A,3,,,,,,,,,,,,,1.0,1.0,1.0*33
$PFLAA,0,2051,-27628,9723,1,4B191B!SWR41G,156,0,251,-6.5,9*5F
$PFLAA,0,1659,-26663,4016,1,4D22BC!RYR71VG,26,0,179,-4.9,9*47
$PFLAA,0,43790,-19422,-555,1,3FEF3A!DMIKP,335,0,35,0.0,0*24
$PFLAA,0,1533,1339,-749,1,39103C!FJLKN,344,0,65,0.4,8*61
$PFLAU,14,1,2,1,0,,0,,,*79
$GPRMC,134936.60,A,4858.58185,N,00705.31275,E,32.1,24.4,281224,,,D*5A
$GPGGA,134936.60,4858.58185,N,00705.31275,E,2,27,1.00,1438.1,M,47.2,M,,*69
$PGRMZ,4346,f,3*2E
$GPGSA,A,3,,,,,,,,,,,,,1.0,1.0,1.0*33
$PFLAA,0,43810,-19442,-555,1,3FEF3A!DMIKP,340,0,36,0.0,0*24
$PFLAA,0,1581,1315,-748,1,39103C!FJLKN,344,0,65,0.6,8*65
$PFLAU,14,1,2,1,0,,0,,,*79
$PFLAA,0,1228,-27278,9685,1,4B191B!SWR41G,156,0,251,-6.5,9*5C
$PFLAA,0,1644,-26670,4016,1,4D22BC!RYR71VG,26,0,179,-4.9,9*49
$GPRMC,134937.60,A,4858.58986,N,00705.31833,E,32.0,24.1,281224,,,D*5C
$GPGGA,134937.60,4858.58986,N,00705.31833,E,2,27,1.00,1438.1,M,47.2,M,,*6B
$PGRMZ,4346,f,3*2E
$GPGSA,A,3,,,,,,,,,,,,,1.0,1.0,1.0*33
$PFLAA,0,1990,-26501,4009,1,4D22BC!RYR71VG,26,0,179,-4.9,9*44
$PFLAA,0,43795,-19448,-555,1,3FEF3A!DMIKP,340,0,36,0.0,0*2C
$PFLAA,0,1629,1291,-747,1,39103C!FJLKN,344,0,65,0.1,8*61
$PFLAU,14,1,2,1,0,,0,,,*79
$PFLAA,0,1005,-27208,9693,1,4B191B!SWR41G,157,0,250,-7.2,9*57
$GPRMC,134938.60,A,4858.59810,N,00705.32382,E,31.8,24.1,281224,,,D*55
$GPGGA,134938.60,4858.59810,N,00705.32382,E,2,27,1.00,1438.0,M,47.2,M,,*68
$PGRMZ,4346,f,3*2E
$GPGSA,A,3,,,,,,,,,,,,,1.0,1.0,1.0*33
$PFLAA,0,2234,-26384,4001,1,4D22BC!RYR71VG,26,0,179,-4.9,9*41
$PFLAA,0,43853,-19479,-555,1,3FEF3A!DMIKP,340,0,36,0.0,0*2B
$PFLAA,0,1677,1267,-746,1,39103C!FJLKN,344,0,65,0.0,8*63
$PFLAU,14,1,2,1,0,,0,,,*79
$PFLAA,0,651,-27072,9686,1,4B191B!SWR41G,157,0,251,-7.2,9*6B
$GPRMC,134939.60,A,4858.60611,N,00705.32934,E,31.7,24.4,281224,,,D*5C
$GPGGA,134939.60,4858.60611,N,00705.32934,E,2,27,1.00,1438.0,M,47.2,M,,*6B
$PGRMZ,4345,f,3*2D
$PFLAA,0,1726,1242,-746,1,39103C!FJLKN,344,0,66,-0.4,8*4B
$GPGSA,A,3,,,,,,,,,,,,,1.0,1.0,1.0*33
$PFLAA,0,43838,-19485,-555,1,3FEF3A!DMIKP,340,0,36,0.0,0*25
$PFLAA,0,637,-27078,9678,1,4B191B!SWR41G,157,0,249,-7.2,9*69
$PFLAU,14,1,2,1,0,,0,,,*79
$PFLAA,0,2220,-26390,3994,1,4D22BC!RYR71VG,26,0,180,-4.9,9*45
$GPRMC,134940.60,A,4858.61412,N,00705.33486,E,31.5,24.5,281224,,,D*54
$GPGGA,134940.60,4858.61412,N,00705.33486,E,2,27,1.00,1437.9,M,47.2,M,,*66
$PGRMZ,4345,f,3*2D
$GPGSA,A,3,,,,,,,,,,,,,1.0,1.0,1.0*33
$PFLAA,0,2205,-26397,3986,1,4D22BC!RYR71VG,26,0,180,-4.9,9*46
$PFLAA,0,43824,-19492,-554,1,3FEF3A!DMIKP,340,0,36,0.0,0*2F
$PFLAA,0,1775,1218,-745,1,39103C!FJLKN,345,0,67,0.3,8*6B
$PFLAU,14,1,2,1,0,,0,,,*79
$PFLAA,0,367,-26977,9678,1,4B191B!SWR41G,157,0,250,-7.8,9*6C
$GPRMC,134941.60,A,4858.62190,N,00705.34044,E,31.3,25.2,281224,,,D*54
$GPGGA,134941.60,4858.62190,N,00705.34044,E,2,27,1.00,1437.8,M,47.2,M,,*67
$PGRMZ,4345,f,3*2D
$GPGSA,A,3,,,,,,,,,,,,,1.0,1.0,1.0*33
$PFLAA,0,2644,-26184,3986,1,4D22BC!RYR71VG,26,0,180,-4.9,9*47
$PFLAA,0,43907,-19534,-554,1,3FEF3A!DMIKP,340,0,36,0.0,0*22
$PFLAA,0,1896,1180,-737,1,39103C!FJLKN,345,0,67,0.0,7*62
$PFLAU,14,1,2,1,0,,0,,,*79
$PFLAA,0,98,-26877,9663,1,4B191B!SWR41G,157,0,249,-7.8,9*5C
$GPRMC,134942.60,A,4858.62968,N,00705.34614,E,31.1,26.1,281224,,,D*59
$GPGGA,134942.60,4858.62968,N,00705.34614,E,2,27,1.00,1437.7,M,47.2,M,,*67
$PGRMZ,4344,f,3*2C
$PFLAA,0,1875,1170,-746,1,39103C!FJLKN,345,0,67,-0.3,8*47
$GPGSA,A,3,,,,,,,,,,,,,1.0,1.0,1.0*33
$PFLAA,0,2630,-26191,3986,1,4D22BC!RYR71VG,26,0,180,-4.9,9*40
$PFLAA,0,-144,-26791,9663,1,4B191B!SWR41G,157,0,249,-7.8,9*46
$PFLAA,0,43927,-19554,-554,1,3FEF3A!DMIKP,340,0,36,0.0,0*26
$PFLAU,14,1,2,1,0,,0,,,*79
$GPRMC,134943.60,A,4858.63747,N,00705.35203,E,31.1,27.1,281224,,,D*58
$GPGGA,134943.60,4858.63747,N,00705.35203,E,2,27,1.00,1437.5,M,47.2,M,,*65
$PGRMZ,4344,f,3*2C
$PFLAA,0,2009,1131,-737,1,39103C!FJLKN,346,0,67,0.3,8*6A
$GPGSA,A,3,,,,,,,,,,,,,1.0,1.0,1.0*33
$PFLAA,0,-363,-26713,9648,1,4B191B!SWR41G,157,0,249,-8.1,9*44
$PFLAA,0,43946,-19573,-554,1,3FEF3A!DMIKP,340,0,36,0.0,0*24
$PFLAU,14,1,2,1,0,,0,,,*79
$GPRMC,134944.60,A,4858.64502,N,00705.35810,E,31.0,28.1,281224,,,D*5D
$GPGGA,134944.60,4858.64502,N,00705.35810,E,2,27,1.00,1437.2,M,47.2,M,,*69
$PGRMZ,4344,f,3*2C
$GPGSA,A,3,,,,,,,,,,,,,1.0,1.0,1.0*33
$PFLAA,0,3147,-25947,3971,1,4D22BC!RYR71VG,26,0,180,-4.9,9*4E
$PFLAA,0,43966,-19593,-554,1,3FEF3A!DMIKP,340,0,36,0.0,0*28
$PFLAA,0,2061,1106,-737,1,39103C!FJLKN,345,0,67,0.7,8*67
$PFLAU,14,1,2,1,0,,0,,,*79
$PFLAA,0,-377,-26720,9640,1,4B191B!SWR41G,157,0,249,-8.5,9*4D
$GPRMC,134945.60,A,4858.65257,N,00705.36430,E,31.1,28.8,281224,,,D*5F
$GPGGA,134945.60,4858.65257,N,00705.36430,E,2,27,1.00,1437.0,M,47.2,M,,*61
$PGRMZ,4343,f,3*2B
$GPGSA,A,3,,,,,,,,,,,,,1.0,1.0,1.0*33
$PFLAA,0,3133,-25954,3964,1,4D22BC!RYR71VG,26,0,180,-4.9,9*4B
$PFLAA,0,43987,-19613,-554,1,3FEF3A!DMIKP,340,0,36,0.0,0*2C
$PFLAA,0,2108,1080,-729,1,39103C!FJLKN,346,0,67,0.7,8*6A
$PFLAU,14,1,2,1,0,,0,,,*79
$PFLAA,0,-391,-26727,9633,1,4B191B!SWR41G,157,0,249,-8.5,9*46
$GPRMC,134946.60,A,4858.66013,N,00705.37063,E,31.0,29.2,281224,,,D*54
$GPGGA,134946.60,4858.66013,N,00705.37063,E,2,27,1.00,1436.8,M,47.2,M,,*69
$PGRMZ,4342,f,3*2A
$GPGSA,A,3,,,,,,,,,,,,,1.0,1.0,1.0*33
$PFLAA,0,-1177,-26409,9626,1,4B191B!SWR41G,157,0,249,-8.8,9*7B
$PFLAA,0,3119,-25962,3964,1,4D22BC!RYR71VG,26,0,180,-4.9,9*46
$PFLAA,0,44006,-19632,-554,1,3FEF3A!DMIKP,340,0,36,0.0,0*28
$PFLAA,0,2162,1054,-729,1,39103C!FJLKN,346,0,67,1.0,8*69
$PFLAU,14,1,2,1,0,,0,,,*79
$GPRMC,134947.60,A,4858.66768,N,00705.37706,E,31.1,29.6,281224,,,D*5F
$GPGGA,134947.60,4858.66768,N,00705.37706,E,2,27,1.00,1436.5,M,47.2,M,,*6A
$PGRMZ,4342,f,3*2A
$PFLAA,0,2131,1048,-736,1,39103C!FJLKN,345,0,67,1.1,8*6E
$GPGSA,A,3,,,,,,,,,,,,,1.0,1.0,1.0*33
$PFLAA,0,3536,-25758,3951,1,4D22BC!RYR71VG,26,0,180,-4.9,9*4E
$PFLAA,0,44026,-19653,-553,1,3FEF3A!DMIKP,340,0,36,0.0,0*2A
$PFLAA,0,-1568,-26271,9618,1,4B191B!SWR41G,158,0,249,-8.8,9*7A
$PFLAU,15,1,2,1,0,,0,,,*78
$GPRMC,134948.60,A,4858.67523,N,00705.38353,E,31.1,29.7,281224,,,D*56
$GPGGA,134948.60,4858.67523,N,00705.38353,E,2,27,1.00,1436.3,M,47.2,M,,*64
$PGRMZ,4341,f,3*29
$PFLAA,0,2294,996,-729,1,39103C!FJLKN,345,0,67,1.3,8*55
$GPGSA,A,3,,,,,,,,,,,,,1.0,1.0,1.0*33
$PFLAA,0,-1582,-26279,9618,1,4B191B!SWR41G,158,0,249,-8.8,9*76
$PFLAA,0,44046,-19673,-553,1,3FEF3A!DMIKP,340,0,36,0.0,0*2E
$PFLAA,0,3684,-25687,3952,1,4D22BC!RYR71VG,26,0,180,-4.9,9*44
$PFLAU,15,1,2,1,0,,0,,,*78
$GPRMC,134949.60,A,4858.68256,N,00705.39002,E,31.2,29.7,281224,,,D*58
$GPGGA,134949.60,4858.68256,N,00705.39002,E,2,27,1.00,1436.1,M,47.2,M,,*6B
$PGRMZ,4341,f,3*29
$GPGSA,A,3,,,,,,,,,,,,,1.0,1.0,1.0*33
$PFLAA,0,2348,971,-728,1,39103C!FJLKN,345,0,67,0.9,8*56
$PFLAA,0,3835,-25621,3947,1,4D22BC!RYR71VG,26,0,180,-4.9,9*48
$PFLAA,0,44067,-19693,-553,1,3FEF3A!DMIKP,340,0,36,0.0,0*23
$PFLAA,0,-1851,-26185,9596,1,4B191B!SWR41G,158,0,249,-8.8,9*70
$PFLAU,15,1,2,1,0,,0,,,*78
$GPRMC,134950.60,A,4858.69011,N,00705.39652,E,31.3,29.6,281224,,,D*53
$GPGGA,134950.60,4858.69011,N,00705.39652,E,2,27,1.00,1435.9,M,47.2,M,,*6B
$PGRMZ,4340,f,3*28
$GPGSA,A,3,,,,,,,,,,,,,1.0,1.0,1.0*33
$PFLAA,0,2370,954,-728,1,39103C!FJLKN,345,0,67,1.3,8*51
$PFLAU,15,1,2,1,0,,0,,,*78
$PFLAA,0,3821,-25629,3942,1,4D22BC!RYR71VG,26,0,180,-4.9,9*40
$PFLAA,0,-1865,-26193,9596,1,4B191B!SWR41G,158,0,249,-8.8,9*70
$PFLAA,0,44087,-19713,-553,1,3FEF3A!DMIKP,340,0,36,0.0,0*24
$GPRMC,134951.60,A,4858.69766,N,00705.40301,E,31.3,29.5,281224,,,D*5B
$GPGGA,134951.60,4858.69766,N,00705.40301,E,2,27,1.00,1435.7,M,47.2,M,,*6E
$PGRMZ,4340,f,3*28
$GPGSA,A,3,,,,,,,,,,,,,1.0,1.0,1.0*33
$PFLAA,0,44107,-19733,-553,1,3FEF3A!DMIKP,340,0,36,0.0,0*2F
$PFLAA,0,2387,936,-728,1,39103C!FJLKN,345,0,67,1.3,7*52
$PFLAU,15,1,2,1,0,,0,,,*78
$PFLAA,0,-2338,-26014,9581,1,4B191B!SWR41G,158,0,249,-8.8,9*78
$GPRMC,134952.60,A,4858.70544,N,00705.40948,E,31.4,29.2,281224,,,D*55
$GPGGA,134952.60,4858.70544,N,00705.40948,E,2,27,1.00,1435.6,M,47.2,M,,*61
$PGRMZ,4339,f,3*26
$GPGSA,A,3,,,,,,,,,,,,,1.0,1.0,1.0*33
$PFLAA,0,4263,-25415,3933,1,4D22BC!RYR71VG,26,0,180,-4.9,9*40
$PFLAA,0,2489,896,-720,1,39103C!FJLKN,344,0,67,1.0,8*55
$PFLAA,0,-2352,-26022,9581,1,4B191B!SWR41G,158,0,248,-9.1,9*78
$PFLAA,0,44126,-19753,-553,1,3FEF3A!DMIKP,340,0,36,0.0,0*2A
$PFLAU,15,1,2,1,0,,0,,,*78
$GPRMC,134953.60,A,4858.71300,N,00705.41592,E,31.5,28.9,281224,,,D*52
$GPGGA,134953.60,4858.71300,N,00705.41592,E,2,27,1.00,1435.5,M,47.2,M,,*6E
$PGRMZ,4338,f,3*27
$GPGSA,A,3,,,,,,,,,,,,,1.0,1.0,1.0*33
$PFLAA,0,4445,-25328,3927,1,4D22BC!RYR71VG,26,0,180,-4.9,9*4E
$PFLAA,0,44146,-19773,-552,1,3FEF3A!DMIKP,340,0,36,0.0,0*2F
$PFLAA,0,2540,872,-720,1,39103C!FJLKN,344,0,67,1.3,8*58
$PFLAU,15,1,2,1,0,,0,,,*78
$PFLAA,0,-2366,-26029,9566,1,4B191B!SWR41G,158,0,248,-9.1,9*7D
$GPRMC,134954.60,A,4858.72078,N,00705.42230,E,31.5,28.7,281224,,,D*58
$GPGGA,134954.60,4858.72078,N,00705.42230,E,2,27,1.00,1435.5,M,47.2,M,,*6A
$PGRMZ,4338,f,3*27
$PFLAA,0,2490,868,-721,1,39103C!FJLKN,344,0,67,0.9,8*55
$PFLAU,15,1,2,1,0,,0,,,*78
$GPGSA,A,3,,,,,,,,,,,,,1.0,1.0,1.0*33
$PFLAA,0,4508,-25299,3927,1,4D22BC!RYR71VG,26,0,180,-4.9,9*4D
$PFLAA,0,-3194,-25710,9525,1,4B191B!SWR41G,158,0,248,-9.4,9*7F
$PFLAA,0,44166,-19793,-552,1,3FEF3A!DMIKP,340,0,36,0.0,0*23
$GPRMC,134955.60,A,4858.72833,N,00705.42865,E,31.5,28.3,281224,,,D*50
$GPGGA,134955.60,4858.72833,N,00705.42865,E,2,27,1.00,1435.4,M,47.2,M,,*67
$PGRMZ,4337,f,3*28
$GPGSA,A,3,,,,,,,,,,,,,1.0,1.0,1.0*33
$PFLAA,0,4670,-25221,3920,1,4D22BC!RYR71VG,26,0,180,-4.9,9*45
$PFLAA,0,-3441,-25624,9515,1,4B191B!SWR41G,158,0,248,-9.4,9*77
$PFLAA,0,2624,822,-720,1,39103C!FJLKN,344,0,67,0.8,8*56
$PFLAU,14,1,2,1,0,,0,,,*79
$PFLAA,0,44186,-19814,-552,1,3FEF3A!DMIKP,340,0,36,0.0,0*2D
$GPRMC,134956.60,A,4858.73611,N,00705.43494,E,31.4,28.1,281224,,,D*5C
$GPGGA,134956.60,4858.73611,N,00705.43494,E,2,27,1.00,1435.4,M,47.2,M,,*68
$PGRMZ,4337,f,3*28
$GPGSA,A,3,,,,,,,,,,,,,1.0,1.0,1.0*33
$PFLAA,0,4885,-25119,3912,1,4D22BC!RYR71VG,26,0,180,-4.9,9*48
$PFLAA,0,2592,815,-715,1,39103C!FJLKN,344,0,68,0.7,7*55
$PFLAU,13,1,2,1,0,,0,,,*7E
$PFLAA,0,-3686,-25539,9506,1,4B191B!SWR41G,158,0,248,-9.4,9*73
$PFLAA,0,44205,-19833,-552,1,3FEF3A!DMIKP,340,0,36,0.0,0*20
$GPRMC,134957.60,A,4858.74367,N,00705.44118,E,31.5,27.8,281224,,,D*5F
$GPGGA,134957.60,4858.74367,N,00705.44118,E,2,27,1.00,1435.3,M,47.2,M,,*6B
$PGRMZ,4337,f,3*28
$GPGSA,A,3,,,,,,,,,,,,,1.0,1.0,1.0*33
$PFLAA,0,4948,-25090,3912,1,4D22BC!RYR71VG,26,0,180,-4.9,9*48
$PFLAA,0,44225,-19853,-552,1,3FEF3A!DMIKP,340,0,36,0.0,0*24
$PFLAA,0,2728,770,-720,1,39103C!FJLKN,344,0,68,1.0,8*55
$PFLAU,11,1,2,1,0,,0,,,*7C
$PFLAA,0,-3931,-25454,9497,1,4B191B!SWR41G,158,0,248,-9.4,9*73
$GPRMC,134958.60,A,4858.75145,N,00705.44733,E,31.6,27.3,281224,,,D*54
$GPGGA,134958.60,4858.75145,N,00705.44733,E,2,27,1.00,1435.2,M,47.2,M,,*69
$PGRMZ,4337,f,3*28
$PFLAA,0,2800,737,-720,1,39103C!FJLKN,344,0,68,1.0,8*53
$GPGSA,A,3,,,,,,,,,,,,,1.0,1.0,1.0*33
$PFLAA,0,4933,-25098,3905,1,4D22BC!RYR71VG,26,0,180,-4.9,9*4A
$PFLAA,0,-4176,-25369,9487,1,4B191B!SWR41G,158,0,248,-9.4,9*77
$PFLAA,0,44245,-19873,-552,1,3FEF3A!DMIKP,340,0,36,0.0,0*20
$PFLAU,11,1,2,1,0,,0,,,*7C
$GPRMC,134959.60,A,4858.75923,N,00705.45342,E,31.7,27.0,281224,,,D*5C
$GPGGA,134959.60,4858.75923,N,00705.45342,E,2,27,1.00,1435.1,M,47.2,M,,*60
$PGRMZ,4337,f,3*28
$GPGSA,A,3,,,,,,,,,,,,,1.0,1.0,1.0*33
$PFLAA,0,2848,711,-712,1,39103C!FJLKN,343,0,68,1.3,8*5E
$PFLAA,0,5270,-24934,3897,1,4D22BC!RYR71VG,26,0,180,-4.9,9*43
$PFLAU,11,1,2,1,0,,0,,,*7C
$PFLAA,0,-4422,-25284,9478,1,4B191B!SWR41G,158,0,248,-9.4,9*71
$PFLAA,0,44264,-19893,-552,1,3FEF3A!DMIKP,340,0,36,0.0,0*2D
$GPRMC,135000.60,A,4858.76724,N,00705.45946,E,31.8,26.6,281224,,,D*54
$GPGGA,135000.60,4858.76724,N,00705.45946,E,2,27,1.00,1434.9,M,47.2,M,,*69
$PGRMZ,4336,f,3*29
$GPGSA,A,3,,,,,,,,,,,,,1.0,1.0,1.0*33
$PFLAA,0,5421,-24861,3890,1,4D22BC!RYR71VG,26,0,180,-4.9,9*47
$PFLAA,0,44283,-19912,-552,1,3FEF3A!DMIKP,340,0,36,0.0,0*2C
$PFLAA,0,2898,687,-712,1,39103C!FJLKN,343,0,68,1.3,8*5D
$PFLAA,0,-4667,-25199,9469,1,4B191B!SWR41G,158,0,248,-9.4,9*7D
$PFLAU,11,1,2,1,0,,0,,,*7C
$GPRMC,135001.60,A,4858.77502,N,00705.46547,E,31.8,26.3,281224,,,D*59
$GPGGA,135001.60,4858.77502,N,00705.46547,E,2,27,1.00,1434.7,M,47.2,M,,*6F
$PGRMZ,4336,f,3*29
$PFLAA,0,2953,659,-712,1,39103C!FJLKN,343,0,68,1.6,7*52
$GPGSA,A,3,,,,,,,,,,,,,1.0,1.0,1.0*33
$PFLAA,0,5407,-24869,3890,1,4D22BC!RYR71VG,26,0,180,-4.9,9*4B
$PFLAA,0,44303,-19932,-551,1,3FEF3A!DMIKP,340,0,36,0.0,0*24
$PFLAU,11,1,2,1,0,,0,,,*7C
$PFLAA,0,-4912,-25114,9491,1,4B191B!SWR41G,158,0,248,-9.4,9*72
$GPRMC,135002.60,A,4858.78304,N,00705.47139,E,31.8,26.2,281224,,,D*58
$GPGGA,135002.60,4858.78304,N,00705.47139,E,2,27,1.00,1434.5,M,47.2,M,,*6D
$PGRMZ,4335,f,3*2A
$GPGSA,A,3,,,,,,,,,,,,,1.0,1.0,1.0*33
$PFLAA,0,5770,-24696,3882,1,4D22BC!RYR71VG,26,0,180,-4.9,9*45
$PFLAA,0,44410,-19692,-551,1,3FEF3A!DMIKP,340,0,36,0.0,0*24
$PFLAA,0,3001,631,-711,1,39103C!FJLKN,343,0,68,1.3,7*55
$PFLAU,11,1,2,1,0,,0,,,*7C
$PFLAA,0,-5158,-25028,9481,1,4B191B!SWR41G,158,0,248,-9.4,9*7A
$GPRMC,135003.60,A,4858.79082,N,00705.47731,E,31.7,26.0,281224,,,D*56
$GPGGA,135003.60,4858.79082,N,00705.47731,E,2,27,1.00,1434.4,M,47.2,M,,*6F
$PGRMZ,4335,f,3*2A
$GPGSA,A,3,,,,,,,,,,,,,1.0,1.0,1.0*33
$PFLAA,0,3068,598,-711,1,39103C!FJLKN,343,0,68,0.7,7*5F
$PFLAA,0,-5403,-24943,9472,1,4B191B!SWR41G,158,0,248,-9.4,9*78
$PFLAA,0,44395,-19699,-551,1,3FEF3A!DMIKP,340,0,36,0.0,0*25
$PFLAA,0,5843,-24661,3882,1,4D22BC!RYR71VG,26,0,180,-4.9,9*42
$PFLAU,12,1,2,1,0,,0,,,*7F
$GPRMC,135004.60,A,4858.79883,N,00705.48315,E,31.8,25.7,281224,,,D*5E
$GPGGA,135004.60,4858.79883,N,00705.48315,E,2,27,1.00,1434.2,M,47.2,M,,*6A
$PGRMZ,4335,f,3*2A
$GPGSA,A,3,,,,,,,,,,,,,1.0,1.0,1.0*33
$PFLAA,0,6067,-24548,3875,1,4D22BC!RYR71VG,26,0,180,-4.9,9*4F
$PFLAA,0,3104,576,-711,1,39103C!FJLKN,343,0,68,0.0,7*53
$PFLAU,12,1,2,1,0,,0,,,*7F
$PFLAA,0,-5649,-24857,9463,1,4B191B!SWR41G,158,0,248,-9.4,9*70
$GPRMC,135005.60,A,4858.80684,N,00705.48896,E,31.9,25.4,281224,,,D*52
$GPGGA,135005.60,4858.80684,N,00705.48896,E,2,27,1.00,1434.1,M,47.2,M,,*67
$PGRMZ,4335,f,3*2A
$PFLAA,0,3153,546,-711,1,39103C!FJLKN,343,0,69,0.0,8*5C
$PFLAU,12,1,2,1,0,,0,,,*7F
$GPGSA,A,3,,,,,,,,,,,,,1.0,1.0,1.0*33
$PFLAA,0,6200,-24488,3867,1,4D22BC!RYR71VG,26,0,180,-4.9,9*42
$PFLAA,0,-5894,-24772,9453,1,4B191B!SWR41G,158,0,248,-9.4,9*75
$PFLAA,0,44467,-19750,-551,1,3FEF3A!DMIKP,340,0,36,0.0,0*2B
$GPRMC,135006.60,A,4858.81485,N,00705.49468,E,31.9,25.1,281224,,,D*5A
$GPGGA,135006.60,4858.81485,N,00705.49468,E,2,27,1.00,1434.0,M,47.2,M,,*6B
$PGRMZ,4334,f,3*2B
$GPGSA,A,3,,,,,,,,,,,,,1.0,1.0,1.0*33
$PFLAA,0,3207,520,-711,1,39103C!FJLKN,344,0,69,0.0,7*56
$PFLAA,0,6270,-24454,3867,1,4D22BC!RYR71VG,26,0,180,-4.9,9*44
$PFLAA,0,44487,-19769,-551,1,3FEF3A!DMIKP,340,0,36,0.0,0*2F
$PFLAA,0,-6142,-24685,9444,1,4B191B!SWR41G,158,0,248,-9.4,9*7B
$PFLAU,12,1,2,1,0,,0,,,*7F
$GPRMC,135007.60,A,4858.82286,N,00705.50035,E,32.0,24.7,281224,,,D*54
$GPGGA,135007.60,4858.82286,N,00705.50035,E,2,27,1.00,1433.9,M,47.2,M,,*66
$PGRMZ,4334,f,3*2B
$GPGSA,A,3,,,,,,,,,,,,,1.0,1.0,1.0*33
$PFLAA,0,3274,488,-711,1,39103C!FJLKN,344,0,69,0.3,7*52
$PFLAU,12,1,2,1,0,,0,,,*7F
$PFLAA,0,6521,-24331,3860,1,4D22BC!RYR71VG,26,0,180,-5.2,9*4E
$PFLAA,0,-6388,-24599,9434,1,4B191B!SWR41G,158,0,248,-9.4,9*76
$PFLAA,0,44506,-19788,-551,1,3FEF3A!DMIKP,340,0,36,0.0,0*28
$GPRMC,135008.60,A,4858.83087,N,00705.50595,E,32.0,24.5,281224,,,D*54
$GPGGA,135008.60,4858.83087,N,00705.50595,E,2,27,1.00,1433.8,M,47.2,M,,*65
$PGRMZ,4334,f,3*2B
$GPGSA,A,3,,,,,,,,,,,,,1.0,1.0,1.0*33
$PFLAA,0,6592,-24298,3852,1,4D22BC!RYR71VG,26,0,180,-5.2,9*45
$PFLAA,0,44525,-19807,-551,1,3FEF3A!DMIKP,340,0,36,0.0,0*21
$PFLAA,0,3326,462,-711,1,39103C!FJLKN,344,0,69,0.7,8*5B
$PFLAA,0,-6633,-24514,9425,1,4B191B!SWR41G,158,0,248,-9.4,9*76
$PFLAU,12,1,2,1,0,,0,,,*7F
$GPRMC,135009.60,A,4858.83911,N,00705.51145,E,32.0,24.0,281224,,,D*5E
$GPGGA,135009.60,4858.83911,N,00705.51145,E,2,27,1.00,1433.6,M,47.2,M,,*64
$PGRMZ,4333,f,3*2C
$PFLAA,0,3336,450,-711,1,39103C!FJLKN,345,0,69,1.0,8*5C
$GPGSA,A,3,,,,,,,,,,,,,1.0,1.0,1.0*33
$PFLAA,0,6737,-24225,3853,1,4D22BC!RYR71VG,26,0,180,-5.2,9*4F
$PFLAA,0,44543,-19826,-551,1,3FEF3A!DMIKP,340,0,36,0.0,0*22
$PFLAA,0,-6879,-24428,9415,1,4B191B!SWR41G,158,0,248,-9.4,9*7B
$PFLAU,12,1,2,1,0,,0,,,*7F
$GPRMC,135010.60,A,4858.84712,N,00705.51688,E,32.1,23.6,281224,,,D*5A
$GPGGA,135010.60,4858.84712,N,00705.51688,E,2,27,1.00,1433.5,M,47.2,M,,*63
$PGRMZ,4333,f,3*2C
$PFLAA,0,3417,421,-703,1,39103C!FJLKN,346,0,69,1.0,8*5E
$GPGSA,A,3,,,,,,,,,,,,,1.0,1.0,1.0*33
$PFLAA,0,-7125,-24342,9406,1,4B191B!SWR41G,158,0,248,-9.4,9*73
$PFLAA,0,44563,-19845,-551,1,3FEF3A!DMIKP,340,0,36,0.0,0*25
$PFLAA,0,6878,-24155,3845,1,4D22BC!RYR71VG,26,0,180,-5.2,9*48
$PFLAU,12,1,2,1,0,,0,,,*7F
$GPRMC,135011.60,A,4858.85536,N,00705.52226,E,32.0,23.5,281224,,,D*5F
$GPGGA,135011.60,4858.85536,N,00705.52226,E,2,27,1.00,1433.4,M,47.2,M,,*65
$PGRMZ,4332,f,3*2D
$PFLAA,0,3441,405,-703,1,39103C!FJLKN,346,0,69,1.0,7*54
$GPGSA,A,3,,,,,,,,,,,,,1.0,1.0,1.0*33
$PFLAA,0,-7371,-24256,9397,1,4B191B!SWR41G,158,0,248,-9.4,9*7B
$PFLAA,0,44581,-19864,-551,1,3FEF3A!DMIKP,340,0,36,0.0,0*2A
$PFLAU,12,1,2,1,0,,0,,,*7F
$PFLAA,0,6863,-24162,3845,1,4D22BC!RYR71VG,26,0,180,-5.2,9*46
$GPRMC,135012.60,A,4858.86337,N,00705.52767,E,31.8,24.0,281224,,,D*51
$GPGGA,135012.60,4858.86337,N,00705.52767,E,2,27,1.00,1433.3,M,47.2,M,,*65
$PGRMZ,4332,f,3*2D
$GPGSA,A,3,,,,,,,,,,,,,1.0,1.0,1.0*33
$PFLAA,0,-7616,-24170,9387,1,4B191B!SWR41G,158,0,248,-9.4,9*79
$PFLAA,0,6848,-24168,3838,1,4D22BC!RYR71VG,26,0,180,-5.2,9*4F
$PFLAA,0,3411,396,-688,1,39103C!FJLKN,346,0,69,1.4,8*55
$PFLAU,12,1,2,1,0,,0,,,*7F
$PFLAA,0,44600,-19883,-550,1,3FEF3A!DMIKP,340,0,36,0.0,0*28
$GPRMC,135013.60,A,4858.87161,N,00705.53319,E,31.7,24.8,281224,,,D*5B
$GPGGA,135013.60,4858.87161,N,00705.53319,E,2,27,1.00,1433.3,M,47.2,M,,*68
$PGRMZ,4332,f,3*2D
$PFLAA,0,3577,355,-703,1,39103C!FJLKN,349,0,69,1.6,8*54
$GPGSA,A,3,,,,,,,,,,,,,1.0,1.0,1.0*33
$PFLAA,0,44619,-19902,-551,1,3FEF3A!DMIKP,24,0,40,0.0,0*19
$PFLAA,0,-7862,-24084,9378,1,4B191B!SWR41G,158,0,248,-9.4,9*7E
$PFLAA,0,7376,-23909,3830,1,4D22BC!RYR71VG,26,0,180,-5.2,9*48
$PFLAU,12,1,2,1,0,,0,,,*7F
$GPRMC,135014.60,A,4858.87939,N,00705.53888,E,31.7,25.7,281224,,,D*54
$GPGGA,135014.60,4858.87939,N,00705.53888,E,2,27,1.00,1433.1,M,47.2,M,,*6B
$PGRMZ,4332,f,3*2D
$GPGSA,A,3,,,,,,,,,,,,,1.0,1.0,1.0*33
$PFLAA,0,3627,333,-695,1,39103C!FJLKN,349,0,69,1.6,8*5C
$PFLAU,12,1,2,1,0,,0,,,*7F
$PFLAA,0,7496,-23851,3822,1,4D22BC!RYR71VG,26,0,179,-5.2,9*48
$PFLAA,0,-8108,-23998,9369,1,4B191B!SWR41G,158,0,248,-9.4,9*77
$PFLAA,0,44641,-19892,-551,1,3FEF3A!DMIKP,24,0,40,0.0,0*1C
$GPRMC,135015.60,A,4858.88741,N,00705.54466,E,31.6,25.9,281224,,,D*5F
$GPGGA,135015.60,4858.88741,N,00705.54466,E,2,27,1.00,1433.0,M,47.2,M,,*6E
$PGRMZ,4332,f,3*2D
$GPGSA,A,3,,,,,,,,,,,,,1.0,1.0,1.0*33
$PFLAA,0,7709,-23752,3815,1,4D22BC!RYR71VG,26,0,179,-5.2,9*45
$PFLAA,0,3682,315,-695,1,39103C!FJLKN,351,0,69,1.3,8*5B
$PFLAA,0,44663,-19883,-550,1,3FEF3A!DMIKP,24,0,40,0.0,0*1D
$PFLAU,12,1,2,1,0,,0,,,*7F
$PFLAA,0,-8353,-23913,9359,1,4B191B!SWR41G,158,0,248,-9.4,9*7B
$GPRMC,135016.60,A,4858.89519,N,00705.55044,E,31.7,25.5,281224,,,D*5A
$GPGGA,135016.60,4858.89519,N,00705.55044,E,2,27,1.00,1432.9,M,47.2,M,,*6E
$PGRMZ,4331,f,3*2E
$GPGSA,A,3,,,,,,,,,,,,,1.0,1.0,1.0*33
$PFLAA,0,7777,-23716,3815,1,4D22BC!RYR71VG,26,0,179,-5.2,9*4C
$PFLAA,0,44685,-19873,-550,1,3FEF3A!DMIKP,24,0,40,0.0,0*1A
$PFLAA,0,3735,298,-695,1,39103C!FJLKN,351,0,69,1.3,7*5D
$PFLAU,12,1,2,1,0,,0,,,*7F
$GPRMC,135017.60,A,4858.90320,N,00705.55616,E,31.8,25.0,281224,,,D*54
$GPGGA,135017.60,4858.90320,N,00705.55616,E,2,27,1.00,1432.8,M,47.2,M,,*6B
$PGRMZ,4331,f,3*2E
$GPGSA,A,3,,,,,,,,,,,,,1.0,1.0,1.0*33
$PFLAA,0,7991,-23615,3807,1,4D22BC!RYR71VG,26,0,179,-5.2,9*4B
$PFLAA,0,3771,286,-695,1,39103C!FJLKN,352,0,69,1.3,8*5E
$PFLAA,0,44706,-19864,-550,1,3FEF3A!DMIKP,24,0,40,0.0,0*16
$PFLAU,12,1,2,1,0,,0,,,*7F
$GPRMC,135018.60,A,4858.91121,N,00705.56186,E,31.8,25.2,281224,,,D*56
$GPGGA,135018.60,4858.91121,N,00705.56186,E,2,27,1.00,1432.7,M,47.2,M,,*64
$PGRMZ,4331,f,3*2E
$GPGSA,A,3,,,,,,,,,,,,,1.0,1.0,1.0*33
$PFLAA,0,8141,-23540,3800,1,4D22BC!RYR71VG,26,0,179,-5.2,9*45
$PFLAA,0,44728,-19854,-550,1,3FEF3A!DMIKP,24,0,40,0.0,0*19
$PFLAA,0,3829,268,-695,1,39103C!FJLKN,353,0,69,1.6,8*58
$PFLAU,12,1,2,1,0,,0,,,*7F
